build_year,lat,living_area,long,municipality_name,zipcode,num_rooms,object_type_name,price,water_percentage_1000,travel_time_private_transport,travel_time_public_transport,number_of_buildings_in_hectare,number_of_apartments_in_hectare,number_of_workplaces_in_hectare,number_of_workplaces_sector_1_in_hectare,number_of_workplaces_sector_2_in_hectare,number_of_workplaces_sector_3_in_hectare,population_in_hectare
1990,47.0098075866699,110.0,8.48378944396973,Vitznau,6354,3.0,Wohnung,815000.0,0.4005653825715809,35.0,102.0,10,26.0,7,0,0,7,34
2017,46.8721771240234,120.0,9.88018321990967,Klosters-Serneus,7250,3.0,Wohnung,890000.0,0.008272204495314552,85.0,112.0,7,54.0,3,0,0,3,44
2010,46.519172668457,107.0,6.52588176727295,Préverenges,1028,4.0,Wohnung,870000.0,0.14053380417311204,9.0,25.0,5,39.0,3,0,3,0,89
2018,47.5213432312012,103.0,8.53697109222412,Bülach,8180,3.0,Wohnung,829000.0,0.003954126706020564,14.0,18.0,2,2.0,3,0,3,0,4
2007,46.510215759277294,95.0,9.85242652893066,Celerina/Schlarigna,7505,3.0,Wohnung,865000.0,0.011115951931518585,101.0,198.0,9,45.0,3,0,3,3,85
2015,47.5354194641113,112.0,7.71039485931396,Augst,4302,4.0,Wohnung,849000.0,0.08179529801292536,10.0,16.0,3,30.0,3,0,0,3,69
2016,47.4431686401367,119.0,8.67109107971191,Lindau,8315,4.0,Wohnung,840000.0,0.0,13.0,24.0,2,11.0,0,0,0,0,10
1978,47.537502288818395,96.0,7.57120752334595,Binningen,4102,3.0,Wohnung,895000.0,0.0043771326983131215,4.0,10.0,8,50.0,17,0,0,17,110
1990,46.86417388916021,127.0,9.88101196289062,Klosters-Serneus,7250,3.0,Wohnung,865000.0,0.014617054710858347,85.0,112.0,7,39.0,3,0,0,3,28
2008,47.11698913574221,110.0,8.77562999725342,Einsiedeln,8841,4.0,Wohnung,870000.0,0.3762621772251755,27.0,42.0,6,29.0,3,0,0,3,54
2018,46.460453033447294,118.0,6.208910942077639,Arzier-Le Muids,1273,4.0,Wohnung,847000.0,0.0,27.0,45.0,6,26.0,7,0,0,7,61
2015,47.6291389465332,137.0,9.24705219268799,Münsterlingen,8597,4.0,Wohnung,890000.0,0.42006867456417607,46.0,96.0,6,12.0,0,0,0,0,25
2017,46.6796951293945,109.0,7.66539001464844,Spiez,3700,4.0,Wohnung,870000.0,0.02069206121508688,23.0,34.0,3,5.0,0,0,0,0,6
2018,46.8759880065918,177.0,7.63869476318359,Niederhünigen,3504,5.0,Wohnung,710000.0,0.0,15.0,36.0,2,6.0,0,0,0,0,5
1973,46.797721862793,100.0,9.82158184051514,Davos,7270,5.0,Wohnung,765000.0,0.006484110482729513,95.0,141.0,5,40.0,0,0,0,0,20
2005,46.7914009094238,104.0,9.26237201690674,Sagogn,7152,4.0,Wohnung,852000.0,0.1682586670303628,84.0,137.0,7,13.0,0,0,0,0,16
1967,46.2977066040039,92.0,7.05490350723267,Ollon,1884,3.0,Wohnung,895000.0,0.0,39.0,45.0,7,25.0,13,0,3,12,27
2017,47.5504493713379,130.0,9.1484375,Bürglen (TG),8575,4.0,Wohnung,893000.0,0.12917771190447744,41.0,62.0,3,17.0,3,0,3,0,22
2017,46.880218505859396,117.0,8.64638710021973,Altdorf (UR),6460,3.0,Wohnung,880000.0,0.0,49.0,87.0,6,40.0,6,0,3,5,55
1,46.1059341430664,73.0,7.22815704345703,Bagnes,1936,3.0,Wohnung,890000.0,0.0002684576505750181,59.0,86.0,4,21.0,0,0,0,0,3
2001,47.12952041625979,137.0,8.79558849334717,Einsiedeln,8846,4.0,Sonstiges,835000.0,0.3861588243382507,27.0,42.0,6,21.0,3,0,0,3,36
2019,47.17561340332029,118.0,8.11756229400635,Sursee,6210,4.0,Wohnung,835000.0,0.05589414857268273,41.0,46.0,4,26.0,3,0,0,3,48
2005,46.2835693359375,123.0,7.07547807693481,Gryon,1882,4.0,Wohnung,885000.0,0.0035962612128797164,43.0,88.0,5,26.0,3,0,3,3,15
2019,47.084621429443395,123.0,8.04018402099609,Menznau,6122,4.0,Wohnung,820000.0,0.0,50.0,87.0,8,12.0,3,0,3,0,42
2007,47.38272857666021,145.0,9.65595436096191,Diepoldsau,9444,4.0,Sonstiges,820000.0,0.008010711669244415,65.0,123.0,13,33.0,3,0,3,3,59
1997,46.4074478149414,210.0,8.13389492034912,Fiesch,3984,7.0,Wohnung,778000.0,0.013182758627178392,93.0,120.0,6,17.0,0,0,0,0,18
2018,46.88879013061521,140.0,7.628474235534671,Konolfingen,3510,3.0,Sonstiges,880000.0,0.0,15.0,23.0,7,14.0,3,0,0,3,15
2016,46.475067138671896,94.0,7.43397617340088,Lenk,3775,3.0,Wohnung,860000.0,0.005401605846732983,54.0,108.0,6,14.0,3,3,0,0,10
1594,46.6922073364258,137.0,9.52424716949463,Vaz/Obervaz,7082,4.0,Wohnung,890000.0,0.004273296942325256,85.0,120.0,8,12.0,0,0,0,0,15
2012,47.51831436157229,105.0,8.75675201416016,Winterthur,8404,3.0,Wohnung,850000.0,0.00028679020473020256,16.0,17.0,6,42.0,3,0,0,3,72
2018,47.360626220703104,105.0,8.79307079315186,Pfäffikon,8330,3.0,Wohnung,890000.0,0.12869471381302205,17.0,26.0,12,53.0,6,0,3,5,88
2002,47.526206970214794,100.0,7.56771993637085,Bottmingen,4103,4.0,Wohnung,860000.0,0.003522958453746008,6.0,12.0,9,46.0,3,0,0,3,95
2015,47.34677505493161,116.0,7.92539930343628,Starrkirch-Wil,4656,4.0,Wohnung,865000.0,0.0,38.0,31.0,3,15.0,0,0,0,0,17
2015,46.77689361572271,126.0,9.104851722717287,Waltensburg/Vuorz,7158,4.0,Wohnung,820000.0,0.0,93.0,143.0,3,10.0,0,0,0,0,3
1999,47.4138374328613,113.0,8.59049892425537,Wallisellen,8304,4.0,Wohnung,898000.0,0.010063371912934677,7.0,3.0,11,64.0,29,0,4,25,105
1968,46.808876037597706,95.0,9.84365940093994,Davos,7260,3.0,Wohnung,855000.0,0.03579220717879222,95.0,141.0,4,40.0,0,0,0,0,17
2018,47.4416618347168,109.0,8.63096141815186,Bassersdorf,8303,4.0,Wohnung,860000.0,0.0006138618406054286,11.0,10.0,7,51.0,3,0,3,3,93
1992,47.448204040527294,146.0,8.331907272338869,Neuenhof,5432,4.0,Sonstiges,805000.0,0.08977221941128362,15.0,16.0,6,13.0,3,0,0,3,31
1965,47.2390670776367,105.0,8.736630439758299,Stäfa,8712,4.0,Wohnung,890000.0,0.22211460958994805,25.0,23.0,9,26.0,3,0,0,3,43
1974,47.261135101318395,114.0,8.696887016296388,Männedorf,8708,4.0,Wohnung,890000.0,0.0003893741078781082,21.0,19.0,11,30.0,0,0,0,0,63
2008,46.1939811706543,122.0,9.01928806304932,Bellinzona,6500,4.0,Wohnung,850000.0,0.0322221429695972,26.0,25.0,4,23.0,22,0,3,21,35
2005,47.51012802124021,101.0,8.476734161376951,Neerach,8173,4.0,Wohnung,810000.0,0.008258364535203433,17.0,26.0,10,18.0,3,0,0,3,36
1973,46.810508728027294,100.0,9.83537006378174,Davos,7260,3.0,Wohnung,820000.0,0.0075893074858552935,95.0,141.0,5,38.0,3,0,3,3,7
2016,46.9803886413574,133.0,9.57354164123535,Malans,7208,4.0,Wohnung,830000.0,0.0,59.0,76.0,10,23.0,3,3,0,3,30
2014,47.2771873474121,136.0,8.34794521331787,Muri (AG),5630,4.0,Wohnung,880000.0,0.0,21.0,39.0,7,23.0,3,3,0,3,56
2005,46.1639823913574,150.0,8.79682350158691,Locarno,6600,4.0,Wohnung,830000.0,0.19974444368369204,35.0,57.0,4,32.0,4,0,3,3,128
2018,47.35204696655271,137.0,8.28503322601318,Wohlen (AG),5610,4.0,Wohnung,879000.0,0.0,22.0,30.0,5,5.0,3,0,3,0,9
2005,46.97432708740229,120.0,7.49748659133911,Bolligen,3065,4.0,Wohnung,890000.0,0.0,6.0,14.0,7,18.0,17,0,0,17,46
2008,47.39997863769529,110.0,8.083950042724611,Aarau,5032,3.0,Wohnung,885000.0,0.004324307885940593,27.0,46.0,6,18.0,0,0,0,0,49
1990,46.8059577941895,125.0,9.25478553771973,Laax,7031,4.0,Wohnung,880000.0,0.011415399597735841,81.0,134.0,7,48.0,3,0,0,3,17
2019,47.2661819458008,112.0,8.84621047973633,Dürnten,8632,4.0,Wohnung,830000.0,0.012390191026944658,24.0,33.0,7,33.0,3,0,0,3,74
2018,47.085231781005895,105.0,7.59822559356689,Kirchberg (BE),3422,3.0,Wohnung,845000.0,0.0,16.0,39.0,0,0.0,0,0,0,0,0
2018,47.0851974487305,105.0,7.597909450531008,Kirchberg (BE),3422,3.0,Wohnung,845000.0,0.0,16.0,39.0,5,40.0,0,0,0,0,60
2007,47.6633415222168,161.0,8.98035907745361,Steckborn,8266,4.0,Wohnung,839000.0,0.2965253993848481,39.0,79.0,10,40.0,3,0,0,3,87
2013,47.6991195678711,176.0,8.58503150939941,Beringen,8222,4.0,Wohnung,890000.0,0.0006441033542124264,37.0,65.0,8,22.0,0,0,0,0,45
2018,47.1512794494629,118.0,7.9112262725830105,Fischbach,6145,4.0,Wohnung,850000.0,8.339682335836907e-05,45.0,81.0,3,5.0,0,0,0,0,10
2013,47.298404693603494,120.0,8.84599018096924,Hinwil,8340,4.0,Wohnung,870000.0,0.0,22.0,25.0,8,31.0,0,0,0,0,63
2019,47.401741027832,121.0,8.282702445983888,Tägerig,5522,3.0,Wohnung,890000.0,0.04221622787369324,22.0,58.0,5,6.0,3,0,0,3,19
2017,47.4799957275391,105.0,8.55659008026123,Winkel,8185,3.0,Wohnung,871000.0,0.0004123713648496335,14.0,31.0,8,38.0,4,0,0,4,69
2008,46.7194480895996,133.0,7.69668340682983,Sigriswil,3656,3.0,Wohnung,890000.0,0.1940543097573211,27.0,49.0,2,9.0,3,3,0,3,13
2008,47.046905517578104,102.0,7.61923980712891,Burgdorf,3400,4.0,Wohnung,820000.0,0.0,19.0,19.0,9,63.0,3,0,3,3,109
2015,47.391750335693395,120.0,8.061963081359862,Aarau,5000,3.0,Wohnung,860000.0,0.0036264586176439884,28.0,26.0,6,35.0,3,0,0,3,91
1999,47.25973892211911,115.0,8.80039310455322,Bubikon,8633,4.0,Wohnung,860000.0,0.0,24.0,22.0,11,26.0,3,0,0,3,58
1974,47.1919822692871,105.0,8.493992805480959,Steinhausen,6312,4.0,Wohnung,870000.0,0.0007854075603863161,20.0,44.0,7,50.0,3,0,0,3,112
1994,47.143070220947294,101.0,8.42882442474365,Risch,6343,4.0,Wohnung,860000.0,0.0026759187019121033,24.0,36.0,9,47.0,8,0,3,6,122
2018,47.2973136901855,131.0,7.952990055084231,Zofingen,4800,4.0,Wohnung,895000.0,0.0008252438995156372,36.0,33.0,8,45.0,3,0,0,3,80
2010,47.342681884765604,136.0,8.483029365539549,Stallikon,8143,4.0,Sonstiges,880000.0,0.0,9.0,13.0,8,33.0,3,0,3,3,60
1999,47.5252532958984,118.0,8.78645992279053,Wiesendangen,8542,4.0,Sonstiges,890000.0,6.793290065504825e-05,22.0,29.0,7,31.0,3,0,0,3,65
2019,47.43681335449221,128.0,8.85524845123291,Turbenthal,8488,4.0,Sonstiges,807000.0,0.004987159801920354,26.0,49.0,5,12.0,3,0,3,0,25
1995,46.878833770752,108.0,8.22519016265869,Sarnen,6062,4.0,Wohnung,890000.0,0.5219905663078899,47.0,84.0,4,9.0,3,0,0,3,16
1976,46.15442276000979,106.0,8.78120517730713,Ascona,6612,3.0,Wohnung,890000.0,0.10386524506964036,35.0,74.0,13,30.0,3,0,3,3,48
2008,47.34875106811521,116.0,8.25211620330811,Villmergen,5612,4.0,Wohnung,895000.0,0.0005666272902591684,26.0,43.0,12,28.0,4,0,0,4,59
2014,47.5296211242676,100.0,8.77831649780273,Wiesendangen,8542,3.0,Wohnung,840000.0,0.0,22.0,29.0,3,8.0,0,0,0,0,13
2015,46.88046646118161,101.0,9.87908935546875,Klosters-Serneus,7250,3.0,Wohnung,880000.0,0.008505895244022576,85.0,112.0,4,36.0,3,3,0,3,6
2012,46.55807876586911,118.0,7.370977401733401,Zweisimmen,3770,4.0,Wohnung,890000.0,0.009315808260975564,45.0,82.0,12,20.0,0,0,0,0,26
2011,47.52571105957029,118.0,7.8142557144165,Magden,4312,4.0,Wohnung,895000.0,0.0,15.0,40.0,10,23.0,3,0,3,3,36
2017,47.343780517578104,124.0,8.80674934387207,Pfäffikon,8331,4.0,Wohnung,840000.0,3.7015060273101645e-05,17.0,26.0,13,22.0,3,0,3,0,37
2010,47.34268951416021,143.0,8.48304653167725,Stallikon,8143,4.0,Sonstiges,890000.0,0.0,9.0,13.0,8,33.0,3,0,3,3,60
2018,47.3086433410645,111.0,8.72125816345215,Mönchaltorf,8617,4.0,Wohnung,830000.0,0.00034773159772281693,15.0,29.0,6,27.0,5,0,3,3,76
2017,47.0266647338867,130.0,9.51176357269287,Fläsch,7306,4.0,Wohnung,850000.0,0.02842386343727988,55.0,93.0,12,17.0,3,0,0,3,36
2016,46.18114852905271,123.0,8.87886714935303,Gordola,6596,3.0,Wohnung,875000.0,0.0,29.0,46.0,10,24.0,0,0,0,0,33
1986,47.2289428710938,108.0,8.82560062408447,Rapperswil-Jona,8640,4.0,Wohnung,900000.0,0.13065647624710194,23.0,35.0,12,59.0,10,0,0,10,118
1982,46.3072395324707,110.0,7.490779876708982,Randogne,3975,4.0,Wohnung,840000.0,0.009168457967906414,69.0,116.0,2,20.0,3,0,3,0,17
2019,47.3888740539551,142.0,9.6528377532959,Diepoldsau,9444,4.0,Wohnung,855000.0,0.039035320636553086,65.0,123.0,7,7.0,0,0,0,0,23
2017,47.056827545165994,135.0,8.43063259124756,Greppen,6404,4.0,Wohnung,825000.0,0.34340678730168445,29.0,67.0,4,30.0,0,0,0,0,12
2017,47.26403427124021,109.0,8.850300788879391,Dürnten,8632,4.0,Wohnung,810000.0,0.01443095916212267,24.0,33.0,13,52.0,3,0,0,3,88
2017,47.0573806762695,131.0,8.430112838745119,Greppen,6404,4.0,Wohnung,855000.0,0.3776570669523934,29.0,67.0,4,30.0,0,0,0,0,12
2018,47.5689582824707,97.0,8.23730850219727,Böttstein,5314,3.0,Wohnung,831300.0,0.019784919775938367,32.0,40.0,0,0.0,0,0,0,0,0
2017,47.111968994140604,106.0,7.252271175384519,Port,2562,4.0,Wohnung,840000.0,0.037968738402082584,25.0,48.0,6,56.0,0,0,0,0,35
2017,46.012336730957,135.0,8.90858459472656,Bioggio,6934,4.0,Wohnung,814000.0,0.008165650136910308,9.0,22.0,4,23.0,12,0,3,9,44
2016,47.653469085693395,122.0,9.13907432556152,Tägerwilen,8274,4.0,Wohnung,850000.0,0.00017498651003377308,40.0,83.0,3,21.0,0,0,0,0,66
1973,47.4257583618164,123.0,8.39811420440674,Oetwil an der Limmat,8955,4.0,Wohnung,890000.0,0.047522006143287235,11.0,26.0,7,23.0,3,0,0,3,39
2009,47.5713119506836,100.0,8.52050876617432,Eglisau,8193,4.0,Wohnung,850000.0,0.07177202318166864,18.0,23.0,13,33.0,3,0,0,3,109
2018,47.463596343994105,123.0,9.56921672821045,Thal,9425,4.0,Wohnung,870000.0,0.00020774952937121133,59.0,104.0,5,11.0,0,0,0,0,25
2017,46.4294853210449,74.0,6.925885200500491,Montreux,1823,3.0,Wohnung,850000.0,0.16105380878352288,22.0,20.0,5,7.0,0,0,0,0,5
2019,47.48056411743161,114.0,8.50788688659668,Oberglatt,8154,4.0,Wohnung,850000.0,0.0150990239227548,10.0,9.0,9,16.0,3,3,0,3,45
2015,47.390811920165994,101.0,8.061793327331541,Aarau,5000,2.0,Wohnung,800000.0,0.0019150498056569746,28.0,26.0,7,21.0,3,0,3,0,45
2018,47.42467880249021,82.0,8.40065670013428,Oetwil an der Limmat,8955,2.0,Wohnung,850000.0,0.04603168210535532,11.0,26.0,7,10.0,3,0,0,3,29
2019,46.998992919921896,115.0,7.45670461654663,Zollikofen,3052,4.0,Wohnung,805000.0,0.0,9.0,14.0,13,76.0,3,0,3,3,139
2017,47.6059226989746,153.0,9.01346015930176,Müllheim,8555,5.0,Wohnung,890000.0,0.008714423281624075,31.0,50.0,1,5.0,0,0,0,0,7
1999,47.510814666748,162.0,8.468921661376951,Neerach,8173,4.0,Sonstiges,895000.0,0.0010514406049624266,17.0,26.0,16,28.0,3,0,0,3,63
2019,47.546695709228494,122.0,9.382669448852539,Egnach,9322,3.0,Wohnung,790000.0,0.3518361386266767,59.0,87.0,9,14.0,3,0,0,3,40
2019,47.3218765258789,99.0,8.20585823059082,Seengen,5707,3.0,Wohnung,840000.0,0.14289994507778947,31.0,53.0,8,32.0,0,0,0,0,69
2018,46.873908996582,92.0,7.56400871276855,Münsingen,3110,3.0,Wohnung,825000.0,0.000139231952229258,11.0,17.0,2,3.0,0,0,0,0,3
2018,47.01134872436521,121.0,8.64533805847168,Schwyz,6438,4.0,Wohnung,890000.0,0.020480847214978084,36.0,63.0,6,19.0,6,0,3,4,51
2018,47.0462646484375,129.0,9.44319438934326,Sargans,7320,4.0,Wohnung,820000.0,0.0012821460063478511,52.0,59.0,7,52.0,3,0,0,3,78
2017,47.4920845031738,136.0,8.55450344085693,Winkel,8185,3.0,Wohnung,810000.0,0.0,14.0,31.0,10,51.0,3,0,0,3,106
2019,46.791744232177706,111.0,9.26117706298828,Sagogn,7152,4.0,Wohnung,825000.0,0.15638080395189108,84.0,137.0,9,16.0,0,0,0,0,7
2019,47.4805374145508,117.0,8.50829029083252,Oberglatt,8154,4.0,Wohnung,865000.0,0.015203129517972144,10.0,9.0,7,18.0,3,0,0,3,32
1991,47.2766990661621,145.0,8.83895111083984,Dürnten,8635,6.0,Sonstiges,850000.0,0.00023102109109375367,24.0,33.0,7,34.0,3,0,0,3,88
2006,47.167018890380895,126.0,8.980305671691891,Reichenburg,8864,4.0,Wohnung,827000.0,0.007422113585750703,29.0,45.0,5,40.0,3,0,0,3,82
2018,47.17529296875,125.0,8.87948036193848,Galgenen,8854,5.0,Wohnung,895000.0,0.005861599829068394,23.0,54.0,7,11.0,0,0,0,0,23
2014,47.39456939697271,127.0,8.64947032928467,Dübendorf,8600,4.0,Wohnung,895000.0,0.0004362652173213958,8.0,4.0,4,19.0,3,0,3,3,55
1973,47.3043365478516,119.0,8.76002979278564,Gossau (ZH),8625,4.0,Wohnung,885000.0,0.00041654750211108613,20.0,31.0,6,44.0,4,0,3,3,87
1988,46.4760894775391,97.0,7.13378095626831,Château-d'Oex,1660,4.0,Wohnung,850000.0,0.01663038070277435,53.0,106.0,7,19.0,3,0,3,3,29
2018,46.8698616027832,98.0,9.5363187789917,Chur,7000,3.0,Wohnung,825000.0,0.026127777555859467,66.0,79.0,17,22.0,0,0,0,0,47
2017,46.983978271484396,108.0,9.57040309906006,Malans,7208,2.0,Wohnung,843180.0,0.0,59.0,76.0,4,12.0,0,0,0,0,23
2019,47.4802093505859,114.0,8.50812721252441,Oberglatt,8154,4.0,Wohnung,850000.0,0.014862269883213606,10.0,9.0,0,0.0,0,0,0,0,0
1992,47.2991065979004,115.0,8.84534168243408,Hinwil,8340,4.0,Wohnung,820000.0,0.0,22.0,25.0,9,39.0,3,0,3,3,68
1974,47.45934677124021,134.0,9.03849506378174,Wil (SG),9500,6.0,Wohnung,885000.0,0.0,33.0,47.0,14,34.0,8,0,3,7,76
2019,47.490139007568395,130.0,7.5126047134399405,Bättwil,4112,4.0,Wohnung,845000.0,0.07788091690935897,15.0,33.0,2,2.0,0,0,0,0,5
2011,46.9861450195312,127.0,6.867071151733401,Corcelles-Cormondrèche,2035,4.0,Sonstiges,860000.0,0.0006363646613646886,39.0,71.0,16,16.0,3,0,0,3,55
2018,47.0446434020996,140.0,8.60621070861816,Steinen,6422,5.0,Wohnung,790000.0,0.06182294719509295,35.0,57.0,3,7.0,3,0,3,0,4
1972,47.0517082214355,112.0,8.33945941925049,Luzern,6006,5.0,Wohnung,885000.0,0.3492841449969133,31.0,48.0,5,44.0,9,0,0,9,75
2018,47.3342399597168,128.0,9.399171829223633,Appenzell,9050,4.0,Wohnung,878000.0,0.016594038438913196,58.0,111.0,1,2.0,3,0,3,3,3
1968,47.498928070068395,110.0,7.620041847229,Arlesheim,4144,5.0,Wohnung,850000.0,0.0,9.0,9.0,12,24.0,4,0,0,4,50
1970,47.4880561828613,152.0,8.28545188903809,Obersiggenthal,5415,5.0,Wohnung,882000.0,0.034462109374413345,20.0,37.0,9,61.0,3,0,0,3,124
2019,47.5471267700195,136.0,9.2762975692749,Amriswil,8580,5.0,Wohnung,825000.0,0.0011722855249216367,52.0,64.0,8,27.0,3,0,3,3,80
1994,47.1407318115234,85.0,8.57045459747314,Unterägeri,6314,4.0,Wohnung,840000.0,0.009036340112936692,26.0,50.0,0,0.0,0,0,0,0,0
2018,47.373928070068395,97.0,8.79435539245605,Pfäffikon,8330,3.0,Wohnung,870000.0,0.007136788260666394,17.0,26.0,3,4.0,3,0,0,3,11
2017,47.1064605712891,148.0,7.247038841247559,Bellmund,2564,4.0,Sonstiges,895000.0,0.0,25.0,51.0,3,10.0,3,3,0,0,15
2004,46.8579330444336,72.0,9.88479900360107,Klosters-Serneus,7250,3.0,Wohnung,810000.0,0.012208145711097894,85.0,112.0,2,11.0,0,0,0,0,3
1968,46.0981674194336,86.0,7.2260017395019505,Bagnes,1936,3.0,Wohnung,860000.0,0.0002684576505750181,59.0,86.0,7,47.0,4,0,0,4,31
2011,47.5550651550293,159.0,8.5005931854248,Glattfelden,8192,4.0,Sonstiges,810000.0,0.012623105912996443,19.0,34.0,4,27.0,3,0,3,3,57
1976,47.0263519287109,153.0,7.4948148727417,Urtenen-Schönbühl,3322,5.0,Wohnung,886000.0,0.016118501215040458,12.0,22.0,3,6.0,3,0,0,3,9
2011,46.8829116821289,138.0,8.64488410949707,Altdorf (UR),6460,5.0,Sonstiges,865000.0,0.0,49.0,87.0,9,22.0,8,0,3,7,45
1966,47.3166732788086,100.0,8.51749515533447,Adliswil,8134,4.0,Wohnung,890000.0,0.02901624531578533,6.0,8.0,10,50.0,0,0,0,0,83
2015,47.3915023803711,119.0,8.06159210205078,Aarau,5000,4.0,Wohnung,860000.0,0.002339153169619898,28.0,26.0,6,35.0,3,0,0,3,91
2001,46.68949890136721,145.0,7.77942419052124,Beatenberg,3803,4.0,Sonstiges,835000.0,0.07802433553970478,36.0,82.0,4,9.0,0,0,0,0,9
2008,47.0721549987793,123.0,8.362473487854,Adligenswil,6043,4.0,Wohnung,890000.0,9.862486707533418e-05,32.0,66.0,9,70.0,3,0,3,3,169
2012,47.2476921081543,112.0,8.77786064147949,Hombrechtikon,8634,4.0,Wohnung,885000.0,0.0005015419146283497,22.0,39.0,8,38.0,3,0,0,3,82
2015,47.1040840148926,139.0,8.67745018005371,Rothenthurm,6418,6.0,Wohnung,830000.0,0.0,29.0,64.0,13,23.0,4,0,0,4,39
1983,46.9934425354004,150.0,8.52768230438232,Gersau,6442,6.0,Sonstiges,850000.0,0.3190581969020049,41.0,81.0,7,34.0,5,0,3,4,83
1991,47.1981620788574,152.0,8.10987186431885,Geuensee,6232,6.0,Wohnung,850000.0,0.00031142216499848216,40.0,65.0,5,21.0,14,3,0,13,45
2016,47.516357421875,105.0,7.60400485992432,Münchenstein,4142,4.0,Wohnung,855000.0,0.007781153488553794,7.0,6.0,6,9.0,3,0,0,3,18
1974,47.4830207824707,161.0,7.7481393814086905,Liestal,4410,6.0,Wohnung,810000.0,0.0102529180317427,15.0,16.0,13,44.0,0,0,0,0,73
1989,47.22334289550779,146.0,8.49661922454834,Kappel am Albis,8926,5.0,Wohnung,823000.0,0.0,23.0,39.0,6,20.0,3,0,0,3,49
2010,47.699066162109396,187.0,8.58435153961182,Beringen,8222,5.0,Wohnung,890000.0,0.0006441033542124264,37.0,65.0,8,22.0,0,0,0,0,45
1990,46.028507232665994,116.0,8.95523643493652,Porza,6948,4.0,Wohnung,890000.0,0.0055145367158654385,11.0,15.0,6,23.0,3,0,0,3,55
1993,47.5645217895508,178.0,7.8373274803161594,Möhlin,4313,5.0,Sonstiges,890000.0,0.0,16.0,29.0,9,43.0,3,0,0,3,85
2006,47.27792739868161,126.0,8.836297035217289,Dürnten,8635,5.0,Wohnung,850000.0,9.504118340357792e-05,24.0,33.0,4,25.0,3,0,3,3,58
2014,46.5974349975586,141.0,6.37262964248657,Montricher,1147,4.0,Wohnung,875000.0,0.0,25.0,53.0,9,18.0,3,3,0,3,43
2016,47.6079254150391,135.0,8.91104698181152,Herdern,8535,4.0,Wohnung,855000.0,0.0007840579160325733,31.0,66.0,7,25.0,0,0,0,0,20
1950,47.13293075561521,160.0,8.13759422302246,Nottwil,6207,7.0,Sonstiges,890000.0,0.1546188876386533,41.0,61.0,4,13.0,8,3,3,5,24
2016,46.4415130615234,88.0,7.44321727752686,Lenk,3775,4.0,Wohnung,830000.0,0.006368003307308265,54.0,108.0,9,10.0,3,0,3,0,14
1980,47.46813583374021,152.0,9.48314094543457,Rorschacherberg,9404,5.0,Wohnung,865000.0,0.0,57.0,91.0,14,22.0,0,0,0,0,36
1976,45.95426177978521,200.0,8.96859169006348,Bissone,6816,4.0,Sonstiges,870000.0,0.22372899355799614,10.0,15.0,4,9.0,0,0,0,0,13
2001,47.279712677002,134.0,8.84320545196533,Dürnten,8635,5.0,Wohnung,830000.0,0.0004706495205043705,24.0,33.0,9,43.0,0,0,0,0,72
1975,46.863067626953104,140.0,9.52795028686523,Chur,7000,5.0,Wohnung,890000.0,0.02878050881069365,66.0,79.0,2,20.0,3,0,0,3,54
2019,47.526859283447294,163.0,8.438158988952638,Bachs,8164,5.0,Wohnung,850000.0,0.0,20.0,32.0,3,3.0,0,0,0,0,6
2011,47.5015449523926,156.0,8.00435543060303,Gipf-Oberfrick,5073,5.0,Wohnung,845000.0,0.00018107918333824964,29.0,40.0,4,27.0,0,0,0,0,41
2017,47.2947120666504,130.0,8.39453601837158,Jonen,8916,4.0,Wohnung,840000.0,0.038503523905267054,17.0,28.0,7,29.0,3,0,0,3,74
2004,47.4915771484375,131.0,7.71487951278687,Liestal,4410,5.0,Wohnung,890000.0,0.002818006759619891,15.0,16.0,2,16.0,3,0,0,3,25
2008,46.9367065429688,145.0,7.35376167297363,Bern,3019,5.0,Wohnung,895000.0,0.0,0.0,0.0,21,34.0,3,0,0,3,84
2008,47.3370246887207,157.0,8.85349655151367,Bäretswil,8344,6.0,Sonstiges,890000.0,0.000649356633003708,24.0,39.0,10,19.0,3,0,0,3,52
2017,47.42276763916021,147.0,9.08814239501953,Jonschwil,9243,5.0,Wohnung,830000.0,0.02815795501038772,41.0,62.0,12,43.0,3,0,0,3,81
2019,47.4299125671387,140.0,7.700201511383059,Ziefen,4417,4.0,Wohnung,825000.0,0.003005174709126142,22.0,39.0,2,2.0,0,0,0,0,6
2017,47.4202766418457,113.0,7.49929141998291,Laufen,4242,4.0,Wohnung,855000.0,0.014395077904258863,19.0,23.0,5,11.0,4,0,0,4,17
1972,46.9422721862793,115.0,7.49720048904419,Bern,3073,5.0,Wohnung,840000.0,0.0,6.0,14.0,5,15.0,3,0,3,0,26
2018,47.4058723449707,108.0,8.39593410491943,Dietikon,8953,4.0,Wohnung,860000.0,0.032379311083554116,11.0,7.0,8,55.0,4,0,0,4,98
2013,46.17008972167971,135.0,9.012495040893553,Giubiasco,6512,4.0,Wohnung,890000.0,0.01341036210485208,21.0,26.0,31,47.0,3,0,3,3,74
2019,47.104644775390604,126.0,7.24556732177734,Bellmund,2564,5.0,Wohnung,830000.0,0.00018440472432764305,25.0,51.0,1,1.0,0,0,0,0,0
2018,47.4671974182129,103.0,8.332729339599611,Wettingen,5430,4.0,Wohnung,880000.0,0.0001388933713569373,15.0,19.0,10,24.0,10,3,3,7,58
2018,46.828128814697294,124.0,9.288947105407713,Flims,7018,4.0,Wohnung,880000.0,0.01856345798922416,78.0,119.0,10,63.0,5,0,0,5,87
2012,47.66877746582029,142.0,9.089091300964359,Ermatingen,8272,4.0,Wohnung,735000.0,0.3799573879081825,42.0,93.0,2,9.0,3,0,0,3,16
2018,47.1621627807617,124.0,8.10883235931396,Oberkirch,6208,5.0,Wohnung,900000.0,0.011245553894542524,45.0,57.0,0,0.0,0,0,0,0,0
2016,47.3029289245605,132.0,8.048764228820799,Schöftland,5040,4.0,Wohnung,855000.0,0.0,33.0,55.0,3,30.0,0,0,0,0,61
1980,46.1181564331055,125.0,8.70823764801025,Brissago,6614,4.0,Wohnung,890000.0,0.3388457925681712,41.0,89.0,7,44.0,0,0,0,0,12
1996,47.08699035644529,109.0,8.43203830718994,Küssnacht (SZ),6403,4.0,Wohnung,890000.0,0.05850932787127431,26.0,54.0,5,21.0,3,0,0,3,41
2012,47.5603256225586,133.0,7.9036564826965305,Wallbach,4323,5.0,Sonstiges,890000.0,0.055928503598215856,21.0,41.0,14,17.0,6,3,0,5,48
1983,47.575798034668,152.0,8.52283573150635,Eglisau,8193,5.0,Sonstiges,835000.0,0.08018732262532889,18.0,23.0,6,24.0,12,0,0,12,33
2019,46.622287750244105,136.0,7.0761017799377415,Bulle,1630,5.0,Wohnung,850000.0,0.0001913930679770088,30.0,56.0,0,0.0,0,0,0,0,0
2019,46.6223068237305,136.0,7.07580137252808,Bulle,1630,5.0,Wohnung,850000.0,0.0001913930679770088,30.0,56.0,0,0.0,0,0,0,0,0
2018,47.570743560790994,149.0,8.596179962158201,Berg am Irchel,8415,5.0,Sonstiges,820000.0,0.00033431162316675426,25.0,53.0,15,18.0,3,0,3,0,34
2018,47.0655937194824,157.0,7.73577165603638,Affoltern im Emmental,3416,6.0,Wohnung,890000.0,0.0,29.0,70.0,5,8.0,4,0,3,3,14
2018,47.18091201782229,110.0,8.87435340881348,Galgenen,8854,4.0,Wohnung,870000.0,0.008386716291498111,23.0,54.0,13,55.0,9,3,0,7,116
2005,47.076568603515604,164.0,8.33214569091797,Ebikon,6030,5.0,Wohnung,865000.0,0.033765022152712015,31.0,51.0,14,48.0,5,0,0,5,132
2017,47.2715377807617,135.0,8.91091537475586,Wald (ZH),8636,5.0,Wohnung,860000.0,0.0018849045656747629,26.0,40.0,8,12.0,3,0,3,0,26
2017,46.65259170532229,154.0,7.05297088623047,Marsens,1633,5.0,Sonstiges,810000.0,0.0,31.0,78.0,2,5.0,0,0,0,0,17
2016,47.3465347290039,150.0,8.276318550109862,Wohlen (AG),5610,4.0,Wohnung,840000.0,0.0,22.0,30.0,17,27.0,3,0,0,3,62
2018,46.88427734375,116.0,7.6221199035644505,Konolfingen,3510,4.0,Wohnung,895000.0,0.0,15.0,23.0,11,29.0,0,0,0,0,72
2017,46.87956237792971,169.0,9.52741813659668,Haldenstein,7023,5.0,Sonstiges,895000.0,0.03775227804779503,64.0,90.0,15,48.0,3,0,3,3,106
2018,47.36499404907229,132.0,9.07496738433838,Bütschwil-Ganterschwil,9606,4.0,Wohnung,835000.0,0.03517970660575998,41.0,68.0,6,14.0,3,0,0,3,22
2007,47.3135986328125,103.0,8.46767616271973,Bonstetten,8906,3.0,Wohnung,920000.0,0.0008140288229888107,14.0,15.0,6,17.0,3,0,3,3,32
2016,47.4619827270508,114.0,8.21087265014648,Hausen (AG),5212,4.0,Wohnung,840000.0,0.0003099782530396953,19.0,39.0,7,25.0,10,0,3,7,53
2016,47.3463134765625,150.0,8.27597904205322,Wohlen (AG),5610,4.0,Wohnung,820000.0,0.0,22.0,30.0,13,25.0,3,3,3,3,35
2018,46.9553413391113,108.0,8.33990478515625,Ennetmoos,6372,4.0,Wohnung,840000.0,0.0,48.0,98.0,1,1.0,0,0,0,0,0
2001,46.209114074707,123.0,6.86580896377563,Val-d'Illiez,1873,5.0,Wohnung,850000.0,0.0,41.0,92.0,11,57.0,0,0,0,0,6
2018,47.4902763366699,115.0,8.21936130523682,Brugg,5200,4.0,Wohnung,825000.0,0.06792847769474987,23.0,24.0,5,17.0,3,0,0,3,36
2018,47.32328033447271,131.0,8.20558738708496,Seengen,5707,4.0,Wohnung,850000.0,0.0967871189359759,31.0,53.0,6,22.0,4,0,3,3,39
2013,47.0223197937012,121.0,8.2917947769165,Kriens,6010,3.0,Wohnung,960000.0,0.0,34.0,79.0,4,36.0,3,0,3,3,124
2018,46.9580955505371,144.0,7.52422332763672,Stettlen,3066,3.0,Wohnung,960000.0,0.0,8.0,19.0,6,38.0,7,0,3,6,72
2017,46.28703308105471,150.0,7.5342378616333,Sierre,3960,4.0,Wohnung,850000.0,0.046451367706924936,61.0,76.0,12,13.0,3,0,3,0,38
2015,46.174617767334006,160.0,8.80330562591553,Muralto,6600,4.0,Wohnung,870000.0,0.1390248621671181,33.0,57.0,8,28.0,6,0,0,6,20
2009,46.3542060852051,93.0,7.15035676956177,Ormont-Dessus,1865,4.0,Wohnung,800000.0,0.0,44.0,88.0,4,26.0,3,0,3,0,20
2017,46.8465805053711,107.0,6.8439621925354,Estavayer-le-Lac,1470,4.0,Wohnung,820000.0,0.16306244687322194,30.0,59.0,6,9.0,6,0,3,4,10
2018,47.3707809448242,150.0,9.42045879364014,Bühler,9055,4.0,Wohnung,960000.0,0.00035472177429936584,55.0,111.0,1,1.0,0,0,0,0,3
2015,46.90087890625,93.0,9.56315231323242,Trimmis,7203,3.0,Wohnung,975000.0,0.002424763678698814,65.0,99.0,14,31.0,3,3,0,3,74
2010,47.55966567993161,151.0,7.84456968307495,Möhlin,4313,4.0,Wohnung,955000.0,0.0,16.0,29.0,7,27.0,8,0,0,8,43
1968,46.1763496398926,112.0,8.819356918334961,Minusio,6648,4.0,Wohnung,850000.0,0.3003972571745876,33.0,72.0,4,23.0,3,0,0,3,35
2014,47.259822845459006,72.0,8.58833980560303,Horgen,8810,3.0,Wohnung,965000.0,0.12184580946543745,15.0,12.0,3,13.0,10,0,3,7,11
2020,46.7957649230957,86.0,9.83113384246826,Davos,7270,3.0,Wohnung,950000.0,0.010027027717820058,95.0,141.0,3,17.0,5,0,3,3,30
2013,47.5130615234375,97.0,7.60013675689697,Reinach (BL),4153,3.0,Wohnung,995000.0,0.004755235118503799,12.0,15.0,9,11.0,3,0,3,3,22
2004,46.17700576782229,200.0,8.81433486938477,Minusio,6648,6.0,Wohnung,900000.0,0.17233363563725804,33.0,72.0,12,60.0,17,0,3,16,107
1977,46.7938079833984,46.0,9.82312870025635,Davos,7270,2.0,Wohnung,330000.0,0.007664552397489602,95.0,141.0,6,32.0,4,0,0,4,37
2018,47.42794036865229,124.0,8.301816940307619,Niederrohrdorf,5443,4.0,Wohnung,850000.0,0.0,19.0,38.0,7,26.0,3,0,0,3,44
2011,47.185508728027294,76.0,8.51855373382568,Baar,6340,2.0,Wohnung,940000.0,0.0012595959187171365,22.0,22.0,3,30.0,18,0,0,18,134
1956,47.5376319885254,90.0,7.5980720520019505,Basel,4053,4.0,Wohnung,925000.0,0.00011159250343838368,0.0,0.0,23,56.0,8,0,3,7,123
2015,47.2459602355957,115.0,8.7758846282959,Hombrechtikon,8634,4.0,Wohnung,985000.0,0.0005015419146283497,22.0,39.0,10,31.0,0,0,0,0,80
2018,47.4351463317871,153.0,8.20200634002686,Birr,5242,5.0,Wohnung,840000.0,0.00039007136925003135,22.0,35.0,6,6.0,3,0,3,0,15
2018,46.25255966186521,129.0,6.95015144348145,Monthey,1870,4.0,Wohnung,872528.0,0.0091675024824355,33.0,57.0,8,40.0,29,0,3,27,84
2017,47.29837799072271,124.0,8.39390277862549,Jonen,8916,4.0,Wohnung,840000.0,0.026121100842373776,17.0,28.0,10,15.0,0,0,0,0,36
2017,47.002658843994105,131.0,9.49805068969727,Bad Ragaz,7310,4.0,Wohnung,805000.0,0.008810051507929724,56.0,72.0,8,57.0,3,0,0,3,51
2017,46.04740905761721,137.0,8.9902868270874,Lugano,6965,3.0,Wohnung,950000.0,0.0,8.0,18.0,3,5.0,0,0,0,0,9
1995,47.265796661377,101.0,8.67519474029541,Uetikon am See,8707,4.0,Wohnung,970000.0,0.0933064845417508,19.0,17.0,7,31.0,3,3,0,3,52
1994,47.3466186523438,106.0,8.722568511962889,Uster,8610,4.0,Wohnung,945000.0,0.010037465594362137,13.0,11.0,8,42.0,3,0,0,3,82
2012,47.28291320800779,119.0,8.40932178497314,Ottenbach,8913,3.0,Wohnung,939000.0,0.0,16.0,35.0,5,26.0,3,0,0,3,52
2019,46.00546646118161,76.0,8.969651222229,Lugano,6900,3.0,Wohnung,995000.0,0.2769194603992081,0.0,0.0,4,12.0,13,0,3,10,7
1992,47.1969718933105,102.0,8.71175956726074,Wollerau,8832,3.0,Wohnung,960000.0,0.09280735756353917,18.0,29.0,13,21.0,7,0,3,6,67
2001,46.4599266052246,127.0,7.4407486915588406,Lenk,3775,4.0,Wohnung,990000.0,0.0015023493712580387,54.0,108.0,7,39.0,0,0,0,0,12
1981,45.9245376586914,118.0,8.9178409576416,Morcote,6922,3.0,Wohnung,980000.0,0.5142777899160289,15.0,31.0,6,17.0,0,0,0,0,18
1995,47.515739440918,110.0,7.5545158386230495,Oberwil (BL),4104,3.0,Sonstiges,935000.0,0.0,9.0,19.0,11,56.0,6,0,0,6,96
2018,47.7089729309082,136.0,8.62578296661377,Schaffhausen,8200,4.0,Wohnung,939000.0,0.0024232999717645515,34.0,48.0,7,8.0,3,0,0,3,20
2015,46.004974365234396,135.0,8.96030235290527,Lugano,6900,4.0,Wohnung,990000.0,0.3638547559872637,0.0,0.0,0,0.0,6,0,0,6,0
2003,47.3324775695801,106.0,8.81870746612549,Wetzikon (ZH),8623,4.0,Wohnung,950000.0,0.0013446004047657663,20.0,17.0,14,23.0,3,0,0,3,73
2016,47.2111968994141,122.0,7.99235200881958,Dagmersellen,6252,4.0,Wohnung,968000.0,0.0,40.0,54.0,7,13.0,3,0,3,3,30
1870,47.21386337280271,151.0,7.526676177978518,Solothurn,4500,4.0,Sonstiges,950000.0,0.00010444891457131388,30.0,52.0,1,6.0,0,0,0,0,6
1978,46.1059074401855,74.0,7.232243537902829,Bagnes,1936,3.0,Wohnung,990000.0,0.0002684576505750181,59.0,86.0,3,14.0,0,0,0,0,4
2018,47.521820068359396,115.0,8.35836029052734,Schneisingen,5425,4.0,Sonstiges,980000.0,0.0,22.0,38.0,5,5.0,3,0,3,0,11
2008,46.831695556640604,85.0,9.29264736175537,Flims,7018,4.0,Wohnung,950000.0,0.0,78.0,119.0,10,30.0,0,0,0,0,7
2019,47.424861907959006,121.0,7.774681568145749,Hölstein,4434,3.0,Wohnung,981000.0,0.00967393602731796,22.0,35.0,7,7.0,0,0,0,0,18
2019,47.4068069458008,65.0,8.56055736541748,Zürich,8050,2.0,Wohnung,990000.0,0.003758924584664279,0.0,0.0,13,52.0,3,0,0,3,146
1997,47.5284423828125,137.0,7.650798797607419,Muttenz,4132,4.0,Sonstiges,995000.0,0.0,9.0,8.0,5,24.0,10,0,6,4,47
2015,47.1752433776855,128.0,8.89525890350342,Galgenen,8854,4.0,Wohnung,950000.0,0.01540205166524218,23.0,54.0,7,40.0,3,0,0,3,101
2013,47.47139739990229,115.0,7.59758758544922,Aesch (BL),4147,4.0,Wohnung,920000.0,0.018115242259276944,11.0,14.0,7,44.0,3,0,3,3,98
1996,47.3932304382324,120.0,8.607386589050291,Dübendorf,8600,4.0,Wohnung,940000.0,0.0069008213246926344,8.0,4.0,7,56.0,3,0,0,3,117
2019,46.4628372192383,102.0,6.3449592590332005,Rolle,1180,4.0,Wohnung,950000.0,0.2801977638714803,18.0,23.0,10,12.0,6,0,3,5,38
2018,47.496673583984396,102.0,9.455362319946287,Horn,9326,3.0,Wohnung,920000.0,0.3439460746494909,55.0,97.0,0,0.0,0,0,0,0,0
2016,47.1752815246582,121.0,8.8948860168457,Galgenen,8854,4.0,Wohnung,920000.0,0.015527941657284303,23.0,54.0,7,26.0,4,3,0,3,51
2016,47.09931945800779,108.0,8.27277660369873,Rothenburg,6023,4.0,Wohnung,957000.0,0.0052610914701460105,32.0,71.0,5,50.0,3,0,0,3,132
1990,46.094757080078104,90.0,7.2197699546814,Bagnes,1936,3.0,Wohnung,985000.0,0.0,59.0,86.0,8,11.0,3,0,0,3,24
2003,47.4260482788086,114.0,8.5717248916626,Opfikon,8152,4.0,Wohnung,930000.0,0.012017915647239549,8.0,3.0,12,47.0,5,0,0,5,91
1019,47.0021781921387,121.0,9.55671501159668,Jenins,7307,4.0,Wohnung,990000.0,0.0,58.0,84.0,23,39.0,6,5,0,3,89
2017,47.4660415649414,120.0,8.57934951782227,Kloten,8302,4.0,Wohnung,995000.0,0.0015910032074050535,9.0,7.0,7,48.0,0,0,0,0,31
2016,47.3056831359863,146.0,7.902197360992429,Rothrist,4852,4.0,Wohnung,965000.0,0.016165669097380292,32.0,41.0,3,11.0,3,0,0,3,25
2006,46.4692039489746,120.0,6.34011697769165,Mont-sur-Rolle,1185,4.0,Wohnung,945000.0,7.017961365931877e-05,18.0,34.0,8,28.0,5,0,0,5,66
2011,46.0094184875488,120.0,8.96303462982178,Lugano,6900,3.0,Wohnung,950000.0,0.12352795982121148,0.0,0.0,4,40.0,7,0,3,4,129
2019,47.374050140380895,121.0,8.0455265045166,Unterentfelden,5035,4.0,Wohnung,930000.0,0.0,33.0,39.0,7,11.0,0,0,0,0,14
1972,47.0450248718262,120.0,8.287379264831541,Luzern,6003,4.0,Wohnung,995000.0,0.0,31.0,48.0,3,14.0,0,0,0,0,26
2018,47.3703117370605,100.0,8.37871265411377,Rudolfstetten-Friedlisberg,8964,4.0,Wohnung,998000.0,0.00033818801618137027,13.0,21.0,6,9.0,0,0,0,0,17
2019,47.293853759765604,161.0,7.72955179214478,Oensingen,4702,4.0,Wohnung,955000.0,0.0058360526844012115,33.0,45.0,10,13.0,3,0,0,3,32
1995,46.6591644287109,82.0,7.701651096343991,Aeschi bei Spiez,3703,3.0,Wohnung,470000.0,0.0,27.0,54.0,4,15.0,3,0,0,3,25
1968,46.4997024536133,68.0,9.83531093597412,St. Moritz,7500,2.0,Wohnung,990000.0,0.09461023558677224,99.0,203.0,4,30.0,0,0,0,0,17
2019,47.104915618896506,120.0,7.24583196640015,Bellmund,2564,4.0,Wohnung,950000.0,0.00018440472432764305,25.0,51.0,2,3.0,3,0,3,3,3
1969,46.097007751464794,97.0,7.2346696853637695,Bagnes,1936,4.0,Wohnung,980000.0,0.0002684576505750181,59.0,86.0,9,10.0,3,0,0,3,5
2019,47.2547492980957,91.0,8.59707832336426,Horgen,8810,2.0,Wohnung,920000.0,0.08965089666326359,15.0,12.0,12,32.0,3,0,0,3,70
2018,47.2660903930664,156.0,8.85197448730469,Dürnten,8632,4.0,Sonstiges,995000.0,0.014178181853096853,24.0,33.0,14,28.0,0,0,0,0,52
2019,47.43619537353521,100.0,9.383749008178713,St. Gallen,9008,2.0,Wohnung,995000.0,0.00036517938931781267,48.0,71.0,12,43.0,3,0,0,3,63
2018,46.9843215942383,140.0,9.57147789001465,Malans,7208,4.0,Wohnung,990000.0,0.0,59.0,76.0,7,22.0,3,3,0,0,39
2018,46.2292633056641,176.0,7.35831356048584,Sion,1950,5.0,Wohnung,990000.0,0.028133308416087556,55.0,60.0,11,65.0,40,0,6,34,99
2010,46.978336334228494,114.0,7.4831976890564,Ittigen,3063,3.0,Wohnung,910000.0,0.0,7.0,8.0,13,14.0,3,0,0,3,33
2020,47.5093460083008,144.0,8.76304817199707,Winterthur,8404,4.0,Sonstiges,995000.0,0.00525980399912096,16.0,17.0,0,0.0,0,0,0,0,0
2012,47.1276168823242,136.0,8.74148654937744,Einsiedeln,8840,4.0,Wohnung,990000.0,0.009703030663742136,27.0,42.0,6,35.0,4,0,0,4,76
2009,47.3491897583008,163.0,8.28208827972412,Wohlen (AG),5610,4.0,Wohnung,990000.0,0.0,22.0,30.0,11,42.0,3,0,0,3,89
1982,46.095947265625,63.0,7.23495817184448,Bagnes,1936,2.0,Wohnung,960000.0,0.0002684576505750181,59.0,86.0,10,11.0,0,0,0,0,8
2019,47.3728828430176,116.0,8.641345977783201,Fällanden,8117,3.0,Wohnung,925000.0,0.011911037764036046,7.0,8.0,7,46.0,3,0,3,3,68
2018,46.7920417785645,105.0,9.81725025177002,Davos,7270,4.0,Wohnung,940000.0,0.00653340785089058,95.0,141.0,7,60.0,3,0,0,3,22
2016,46.157497406005895,111.0,8.78077602386475,Ascona,6612,3.0,Wohnung,980000.0,0.040440383824583065,35.0,74.0,10,31.0,3,0,0,3,19
2015,47.41263580322271,133.0,7.5487551689147905,Breitenbach,4226,4.0,Wohnung,950000.0,0.0,20.0,33.0,4,7.0,3,0,0,3,16
2018,47.500373840332,91.0,7.59269571304321,Reinach (BL),4153,3.0,Wohnung,995000.0,0.0009614829698296184,12.0,15.0,18,41.0,3,0,0,3,83
2019,47.2363624572754,177.0,7.6045560836792,Flumenthal,4534,4.0,Wohnung,980000.0,0.04381976027475712,30.0,63.0,9,9.0,3,0,0,3,19
2018,47.45133209228521,136.0,9.01499652862549,Sirnach,8371,3.0,Wohnung,910000.0,0.0,31.0,47.0,2,2.0,0,0,0,0,3
1972,46.776515960693395,141.0,9.670952796936039,Arosa,7050,4.0,Wohnung,955000.0,0.00668774460550352,90.0,154.0,3,19.0,3,0,0,3,17
2018,47.189388275146506,120.0,8.89725303649902,Wangen (SZ),8855,4.0,Wohnung,930000.0,0.01158221144494725,26.0,37.0,2,2.0,0,0,0,0,5
2018,47.311107635498,120.0,8.72110652923584,Mönchaltorf,8617,4.0,Wohnung,995000.0,0.00034773159772281693,15.0,29.0,20,29.0,3,0,3,3,57
2018,47.0064811706543,105.0,9.507819175720213,Bad Ragaz,7310,3.0,Wohnung,950000.0,0.061467293767915675,56.0,72.0,2,3.0,0,0,0,0,3
2019,47.6598701477051,162.0,9.12369918823242,Tägerwilen,8274,4.0,Wohnung,980000.0,0.1110619831782826,40.0,83.0,0,0.0,0,0,0,0,0
2007,47.452522277832,173.0,8.05187225341797,Densbüren,5026,6.0,Einfamilienhaus,1200000.0,0.0,29.0,55.0,1,1.0,0,0,0,0,3
1977,47.52738952636721,126.0,7.5701179504394505,Bottmingen,4103,4.0,Wohnung,990000.0,0.004107461863577096,6.0,12.0,4,32.0,3,0,0,3,58
1989,46.4173240661621,125.0,6.27532148361206,Gland,1196,4.0,Wohnung,910000.0,0.00018161115215732448,21.0,20.0,2,18.0,17,0,0,17,67
2018,47.51061630249021,180.0,8.02836036682129,Frick,5070,4.0,Wohnung,925000.0,0.00958678533513112,24.0,33.0,9,11.0,3,0,0,3,29
2016,47.32221984863279,125.0,8.49204730987549,Stallikon,8143,4.0,Wohnung,950000.0,0.0008845040852141851,9.0,13.0,8,47.0,0,0,0,0,101
2005,46.148834228515604,75.0,8.73854351043701,Ronco sopra Ascona,6613,2.0,Wohnung,995000.0,0.3767044428298073,40.0,86.0,1,3.0,0,0,0,0,3
1982,47.4283599853516,120.0,8.39197444915771,Oetwil an der Limmat,8955,4.0,Wohnung,960000.0,0.04966249115791497,11.0,26.0,8,68.0,4,0,3,3,127
2008,46.2239456176758,134.0,7.27475833892822,Vétroz,1963,3.0,Wohnung,940000.0,7.670182745034649e-05,53.0,86.0,9,26.0,3,0,0,3,46
1972,46.0912055969238,125.0,7.2217106819152805,Bagnes,1936,4.0,Wohnung,940000.0,0.0,59.0,86.0,9,16.0,4,0,3,3,35
2007,46.7023811340332,135.0,7.73517847061157,Sigriswil,3658,4.0,Wohnung,998000.0,0.3531913395193965,27.0,49.0,9,20.0,3,0,0,3,24
2003,46.630767822265604,75.0,8.05376815795898,Grindelwald,3818,2.0,Wohnung,945000.0,0.0,50.0,98.0,4,20.0,3,0,0,3,7
2018,47.221118927002,158.0,8.99900817871094,Uznach,8730,4.0,Wohnung,1200000.0,0.008874214215007831,30.0,46.0,6,18.0,3,0,3,3,23
2016,47.27733993530271,98.0,8.45101070404053,Affoltern am Albis,8910,2.0,Wohnung,930000.0,0.001494301467690376,15.0,22.0,10,28.0,16,0,0,16,46
2018,47.1939277648926,83.0,8.67693424224854,Richterswil,8833,3.0,Wohnung,955000.0,0.002553114729850132,16.0,24.0,10,10.0,4,0,3,3,25
2010,47.27449035644529,120.0,8.855305671691891,Dürnten,8632,4.0,Wohnung,990000.0,0.006178986608444014,24.0,33.0,1,8.0,0,0,0,0,26
1986,47.2322463989258,130.0,8.85679817199707,Rapperswil-Jona,8645,4.0,Wohnung,950000.0,0.010242400352309935,23.0,31.0,17,31.0,3,0,0,3,69
2019,46.83988189697271,117.0,7.62669563293457,Oberdiessbach,3672,4.0,Wohnung,997000.0,0.0,16.0,37.0,3,5.0,0,0,0,0,12
2019,47.2681884765625,192.0,8.20294284820557,Beinwil am See,5712,4.0,Wohnung,950000.0,0.14406369285181353,35.0,54.0,8,22.0,9,0,3,7,41
2003,46.6308822631836,75.0,8.05410003662109,Grindelwald,3818,2.0,Wohnung,945000.0,0.0,50.0,98.0,4,20.0,3,0,0,3,7
2019,47.5029716491699,113.0,9.40232467651367,Roggwil (TG),9325,4.0,Wohnung,940000.0,0.001963665693744745,55.0,107.0,1,2.0,3,0,0,3,3
2011,47.4737319946289,131.0,9.055501937866213,Wil (SG),9500,4.0,Wohnung,945000.0,0.004217623402239593,33.0,47.0,5,33.0,3,0,0,3,59
2018,47.342124938964794,119.0,8.73423862457275,Uster,8610,4.0,Wohnung,990000.0,0.010440083962284592,13.0,11.0,4,7.0,3,0,0,3,16
2018,47.268436431884794,115.0,8.34085273742676,Muri (AG),5630,3.0,Wohnung,910000.0,0.0,21.0,39.0,10,42.0,0,0,0,0,44
2019,47.12715148925779,157.0,9.31237030029297,Walenstadt,8880,4.0,Wohnung,980000.0,0.032572494506715365,47.0,74.0,4,5.0,3,0,0,3,10
2009,47.2604789733887,135.0,8.85574817657471,Rüti (ZH),8630,4.0,Wohnung,995000.0,0.015031971861696341,23.0,25.0,7,31.0,3,0,0,3,55
1989,47.66352844238279,170.0,8.86337757110596,Stein am Rhein,8260,4.0,Wohnung,920000.0,0.13358542903018433,38.0,63.0,2,6.0,3,0,0,3,11
2013,46.72702407836911,158.0,9.55733108520508,Vaz/Obervaz,7078,3.0,Wohnung,2480000.0,0.0018318640401148094,85.0,120.0,5,34.0,11,3,3,9,15
2006,47.11243057250979,215.0,7.305645942687991,Studen (BE),2557,4.0,Einfamilienhaus,1050000.0,0.0041304197119491045,21.0,35.0,11,15.0,3,0,3,3,38
2018,47.248565673828104,110.0,7.97836637496948,Reiden,6260,4.0,Wohnung,699000.0,0.0030255975130896178,37.0,51.0,0,0.0,0,0,0,0,0
2014,47.793529510498,161.0,8.60815334320068,Bargen (SH),8233,4.0,Einfamilienhaus,790000.0,6.625312315118279e-05,40.0,71.0,4,4.0,0,0,0,0,8
2003,47.4838638305664,110.0,8.56215667724609,Winkel,8185,4.0,Wohnung,920000.0,0.0,14.0,31.0,5,21.0,0,0,0,0,48
2019,47.3764839172363,128.0,8.6405029296875,Fällanden,8117,4.0,Wohnung,950000.0,0.009497028408936988,7.0,8.0,0,0.0,3,0,3,0,0
2017,46.8791084289551,114.0,9.87856388092041,Klosters-Serneus,7250,3.0,Wohnung,980000.0,0.008611844856663943,85.0,112.0,9,42.0,0,0,0,0,22
2015,46.6402816772461,81.0,8.59026527404785,Andermatt,6490,3.0,Wohnung,965000.0,0.03408760716683786,66.0,115.0,6,60.0,0,0,0,0,28
2000,47.5176467895508,140.0,7.55224323272705,Oberwil (BL),4104,4.0,Wohnung,920000.0,0.0,9.0,19.0,10,24.0,3,0,3,3,44
2018,47.0012092590332,124.0,7.41415166854858,Kirchlindach,3038,4.0,Wohnung,980000.0,0.0,10.0,8.0,1,1.0,0,0,0,0,3
2017,47.3898696899414,156.0,8.69133472442627,Volketswil,8604,3.0,Wohnung,940000.0,0.01325492850450214,11.0,18.0,2,2.0,0,0,0,0,0
2016,47.325653076171896,107.0,8.469761848449709,Bonstetten,8906,4.0,Wohnung,960000.0,0.024650622176128286,14.0,15.0,2,20.0,4,0,0,4,37
2018,46.0099563598633,96.0,8.929464340209961,Lugano,6932,2.0,Wohnung,904000.0,0.0,7.0,10.0,7,9.0,3,0,0,3,14
2011,47.5297431945801,125.0,8.54481506347656,Bülach,8180,4.0,Wohnung,970000.0,0.0,14.0,18.0,4,28.0,0,0,0,0,59
2003,47.242191314697294,167.0,8.92361354827881,Eschenbach (SG),8733,4.0,Wohnung,930000.0,0.005691689332263315,28.0,45.0,6,20.0,3,0,0,3,50
2006,47.3130683898926,123.0,8.39339637756348,Oberlunkhofen,8917,4.0,Wohnung,980000.0,3.524916080904527e-05,14.0,23.0,13,29.0,6,0,3,4,52
1982,46.10498046875,63.0,7.23696756362915,Bagnes,1936,2.0,Wohnung,960000.0,0.0002684576505750181,59.0,86.0,11,16.0,0,0,0,0,6
2019,46.182369232177706,112.0,8.81925010681152,Minusio,6648,3.0,Wohnung,995000.0,0.004612303864348443,33.0,72.0,8,12.0,0,0,0,0,11
2017,46.1284980773926,156.0,8.71567344665527,Brissago,6614,4.0,Wohnung,995000.0,0.3768120020735958,41.0,89.0,1,1.0,3,0,0,3,0
1910,47.000091552734396,154.0,7.41674947738647,Kirchlindach,3038,4.0,Wohnung,960000.0,0.0,10.0,8.0,13,29.0,9,0,0,9,59
2003,46.9592475891113,99.0,10.398216247558599,Samnaun,7562,4.0,Sonstiges,985000.0,0.0,161.0,247.0,4,22.0,0,0,0,0,3
2019,47.4970817565918,118.0,8.70216464996338,Winterthur,8406,4.0,Wohnung,925000.0,0.013459008326739635,16.0,17.0,9,51.0,3,0,3,0,103
1969,46.0972213745117,97.0,7.2192554473877,Bagnes,1936,4.0,Wohnung,980000.0,0.0,59.0,86.0,11,30.0,9,0,3,8,47
2017,47.4225540161133,183.0,7.4996862411499,Laufen,4242,4.0,Sonstiges,995000.0,0.014313846566138376,19.0,23.0,18,65.0,25,0,3,22,112
2018,47.037326812744105,120.0,8.270204544067381,Kriens,6010,3.0,Wohnung,910000.0,0.0,34.0,79.0,15,18.0,3,0,0,3,56
1990,46.1052436828613,90.0,7.228327751159671,Bagnes,1936,3.0,Wohnung,985000.0,0.0002684576505750181,59.0,86.0,8,53.0,3,0,0,3,15
2018,47.27596282958979,94.0,8.330287933349611,Muri (AG),5630,3.0,Wohnung,920000.0,0.0,21.0,39.0,4,4.0,3,0,3,3,11
2015,47.149261474609396,152.0,9.14943885803223,Amden,8873,4.0,Wohnung,980000.0,0.0,38.0,73.0,7,14.0,4,0,3,3,27
2006,47.4598503112793,159.0,9.393025398254393,Wittenbach,9300,6.0,Wohnung,890000.0,0.0057953634088640975,51.0,88.0,8,25.0,7,0,0,7,51
2020,47.5073165893555,118.0,9.43421745300293,Arbon,9320,5.0,Wohnung,940000.0,0.2563727186095095,57.0,93.0,0,0.0,3,0,0,3,0
2013,47.14982604980471,182.0,9.14103889465332,Amden,8873,4.0,Wohnung,985000.0,0.0,38.0,73.0,6,31.0,5,0,0,5,57
2015,46.1247062683105,85.0,8.71285438537598,Brissago,6614,3.0,Wohnung,999000.0,0.3488341746590985,41.0,89.0,15,36.0,3,0,0,3,21
2013,47.343074798584006,185.0,8.27355289459229,Wohlen (AG),5610,5.0,Wohnung,995000.0,0.0,22.0,30.0,8,36.0,3,0,0,3,77
2013,47.0224189758301,154.0,8.29125595092773,Kriens,6010,5.0,Wohnung,995000.0,0.0,34.0,79.0,4,36.0,3,0,3,3,124
2016,47.1876831054688,145.0,8.024599075317381,Wauwil,6242,5.0,Wohnung,925000.0,0.0,43.0,61.0,5,11.0,0,0,0,0,29
2008,47.4260940551758,180.0,9.61673641204834,Berneck,9442,5.0,Wohnung,990000.0,0.0003674747440108898,64.0,118.0,6,16.0,3,0,0,3,45
2010,46.699535369873,69.0,9.533933639526367,Vaz/Obervaz,7082,3.0,Wohnung,910000.0,0.0,85.0,120.0,4,17.0,3,0,3,0,11
2013,47.2195930480957,119.0,7.55711793899536,Feldbrunnen-St. Niklaus,4532,4.0,Wohnung,920000.0,0.05690395864826706,29.0,59.0,12,24.0,3,0,0,3,34
2001,47.512767791748,152.0,8.4765625,Neerach,8173,5.0,Sonstiges,950000.0,0.003505881267361852,17.0,26.0,9,29.0,5,3,3,3,40
2017,46.9518699645996,162.0,6.82944536209106,Boudry,2017,5.0,Wohnung,995000.0,0.015272797394256948,38.0,77.0,2,2.0,0,0,0,0,4
2018,47.448314666748,167.0,9.10798072814941,Uzwil,9249,5.0,Wohnung,925000.0,0.00011602382295043586,39.0,54.0,10,13.0,3,0,3,3,22
2009,47.468677520752,142.0,7.59722661972046,Aesch (BL),4147,5.0,Sonstiges,998000.0,0.01580249591736966,11.0,14.0,17,57.0,28,0,4,24,136
2018,47.439380645752,123.0,8.269542694091799,Baden,5406,4.0,Wohnung,980000.0,0.0,20.0,16.0,18,22.0,0,0,0,0,48
2009,47.46005630493161,134.0,8.24501132965088,Birmenstorf (AG),5413,5.0,Wohnung,980000.0,0.04638647848700711,16.0,41.0,4,7.0,0,0,0,0,16
1990,47.4732322692871,176.0,8.60241222381592,Lufingen,8426,5.0,Wohnung,950000.0,0.0,12.0,22.0,5,26.0,4,0,0,4,49
1990,47.473114013671896,160.0,8.60280323028564,Lufingen,8426,6.0,Wohnung,980000.0,0.0,12.0,22.0,4,19.0,3,0,0,3,39
2000,46.8676910400391,243.0,8.23905849456787,Sachseln,6072,5.0,Sonstiges,975000.0,0.2522549620160085,46.0,98.0,8,22.0,9,0,3,8,37
2007,47.4944725036621,150.0,8.25403690338135,Turgi,5300,5.0,Sonstiges,980000.0,0.06419111934113347,24.0,25.0,11,34.0,3,0,3,3,71
1597,47.52782821655271,235.0,8.467418670654299,Stadel,8174,4.0,Sonstiges,998000.0,0.00012210135362933114,20.0,33.0,15,41.0,7,0,0,7,69
2018,47.2798881530762,198.0,8.36948680877686,Aristau,5628,5.0,Wohnung,965000.0,0.0031477141588703464,21.0,38.0,2,2.0,0,0,0,0,3
2012,47.203029632568395,160.0,9.00657272338867,Benken (SG),8717,6.0,Wohnung,950000.0,0.00984393809780923,31.0,56.0,10,24.0,0,0,0,0,60
2004,47.503421783447294,134.0,8.774303436279299,Winterthur,8409,5.0,Wohnung,970000.0,0.003676073504334132,16.0,17.0,4,25.0,3,0,0,3,61
1964,46.489261627197294,128.0,9.89578056335449,Pontresina,7504,5.0,Mehrfamilienhaus,990000.0,0.02050315202153813,105.0,202.0,7,36.0,3,0,3,0,64
2019,47.112762451171896,116.0,9.06106472015381,Glarus Nord,8868,4.0,Wohnung,910000.0,0.019399303481847683,34.0,55.0,8,15.0,0,0,0,0,26
1974,47.05041885375979,126.0,8.35125255584717,Luzern,6006,5.0,Wohnung,965000.0,0.08952780948340362,31.0,48.0,1,10.0,0,0,0,0,25
2002,47.2756004333496,172.0,8.45158576965332,Affoltern am Albis,8910,5.0,Sonstiges,920000.0,0.001494301467690376,15.0,22.0,9,60.0,3,0,0,3,148
2019,47.4018898010254,123.0,8.282528877258299,Tägerig,5522,5.0,Wohnung,950000.0,0.042448899999698364,22.0,58.0,5,6.0,3,0,0,3,19
2018,46.963550567627,120.0,7.49559545516968,Ostermundigen,3072,4.0,Wohnung,910000.0,0.0,6.0,16.0,3,22.0,0,0,0,0,40
1996,47.513889312744105,141.0,7.5545859336853,Oberwil (BL),4104,5.0,Wohnung,945000.0,0.0,9.0,19.0,11,28.0,12,0,3,11,58
2018,46.7822265625,204.0,7.60583162307739,Heimberg,3627,5.0,Wohnung,935000.0,0.024902715802398497,16.0,38.0,12,24.0,0,0,0,0,60
1996,47.5165596008301,118.0,7.69415521621704,Pratteln,4133,5.0,Wohnung,980000.0,0.0,10.0,14.0,24,35.0,3,0,3,3,74
2008,47.13779067993161,185.0,7.92142772674561,Zell (LU),6144,6.0,Wohnung,965000.0,0.00812139485155287,42.0,80.0,8,24.0,3,0,3,3,67
1972,47.4491653442383,135.0,8.5805721282959,Kloten,8302,5.0,Wohnung,950000.0,0.0,9.0,7.0,5,33.0,3,0,0,3,70
2013,47.48664855957029,150.0,8.20265865325928,Brugg,5200,5.0,Wohnung,945000.0,0.045771267105334516,23.0,24.0,3,12.0,0,0,0,0,24
2017,47.232795715332,121.0,7.571396350860598,Riedholz,4533,4.0,Wohnung,995000.0,0.09602127689725186,29.0,62.0,6,11.0,0,0,0,0,14
2017,47.6041679382324,131.0,9.2859411239624,Güttingen,8594,4.0,Wohnung,930000.0,0.0005984378974346156,48.0,96.0,10,22.0,3,0,0,3,48
2017,47.39786529541021,143.0,8.01608467102051,Erlinsbach (AG),5018,4.0,Wohnung,950000.0,0.025382364587034332,35.0,55.0,15,15.0,0,0,0,0,33
2014,47.3999137878418,131.0,8.04884719848633,Aarau,5000,4.0,Wohnung,940000.0,0.09036809210512876,28.0,26.0,9,30.0,3,0,0,3,89
2013,47.5561676025391,192.0,9.37319469451904,Salmsach,8599,5.0,Einfamilienhaus,1090000.0,0.1481656513765582,56.0,91.0,23,23.0,3,0,0,3,78
2017,47.033531188964794,162.0,9.435933113098141,Vilters-Wangs,7323,5.0,Wohnung,940000.0,0.0029068750686828486,55.0,89.0,6,14.0,4,3,3,3,43
1912,47.6520843505859,139.0,9.173686027526859,Kreuzlingen,8280,5.0,Wohnung,865000.0,0.08812274966989778,40.0,74.0,6,21.0,9,0,3,7,48
2019,47.427215576171896,150.0,8.29561614990234,Niederrohrdorf,5443,5.0,Wohnung,915000.0,0.0,19.0,38.0,2,2.0,3,0,0,3,0
2018,47.3384323120117,134.0,8.43907928466797,Aesch (ZH),8904,3.0,Wohnung,1090000.0,0.0,10.0,16.0,3,12.0,5,3,3,3,21
2017,46.784049987793,190.0,8.15862083435059,Lungern,6078,6.0,Wohnung,920000.0,0.15997488768402926,56.0,103.0,7,19.0,0,0,0,0,36
2012,47.2958755493164,157.0,8.24603366851807,Fahrwangen,5615,5.0,Wohnung,995000.0,0.0,29.0,55.0,7,11.0,3,3,0,0,21
2007,47.28450012207029,140.0,8.52910041809082,Langnau am Albis,8135,3.0,Wohnung,1200000.0,0.00011794120873346767,10.0,14.0,7,15.0,3,0,0,3,38
2011,47.3587455749512,161.0,8.82431030273438,Hittnau,8335,4.0,Wohnung,1155000.0,0.0028068936629184827,21.0,40.0,14,39.0,3,0,3,3,84
1984,47.4703140258789,100.0,9.48220920562744,Rorschacherberg,9404,4.0,Wohnung,470000.0,0.0,57.0,91.0,4,36.0,3,0,3,3,111
2016,46.862483978271506,133.0,8.64790630340576,Schattdorf,6467,5.0,Wohnung,985000.0,0.011128180678494418,51.0,89.0,1,1.0,0,0,0,0,3
1995,47.39352798461911,100.0,8.46983242034912,Zürich,8048,3.0,Wohnung,1100000.0,0.00012506857429664072,0.0,0.0,4,14.0,3,0,3,0,32
2019,46.8067970275879,156.0,7.1022005081176784,Corminboeuf,1720,5.0,Wohnung,920000.0,0.0,20.0,57.0,2,18.0,3,0,0,3,42
2019,47.472938537597706,104.0,7.600004196166989,Aesch (BL),4147,3.0,Wohnung,1050000.0,0.0281004709949947,11.0,14.0,18,20.0,3,0,0,3,37
2020,47.4158134460449,87.0,8.55447292327881,Zürich,8050,3.0,Wohnung,1040000.0,0.0030855687172174576,0.0,0.0,0,0.0,3,0,0,3,0
2017,47.308723449707,215.0,7.8179793357849094,Härkingen,4624,5.0,Sonstiges,935000.0,0.0,27.0,63.0,6,21.0,4,0,3,3,26
2013,47.26374816894529,192.0,8.39441776275635,Merenschwand,5634,3.0,Wohnung,1180000.0,0.04452065564650346,19.0,40.0,7,11.0,3,3,0,3,24
2017,46.6394653320312,94.0,8.58839702606201,Andermatt,6490,3.0,Wohnung,1015000.0,0.024314141684148274,66.0,115.0,0,0.0,0,0,0,0,0
2011,47.41768646240229,163.0,8.36736488342285,Spreitenbach,8957,5.0,Wohnung,930000.0,0.0005281177144398706,12.0,14.0,8,36.0,3,0,0,3,76
2014,47.399730682373,131.0,8.04874229431152,Aarau,5000,4.0,Wohnung,940000.0,0.0902199710549404,28.0,26.0,9,30.0,3,0,0,3,89
2018,47.3875732421875,131.0,8.07773971557617,Buchs (AG),5033,5.0,Wohnung,960000.0,0.014328388285268287,27.0,41.0,12,21.0,0,0,0,0,43
2017,47.033576965332,159.0,9.435309410095213,Vilters-Wangs,7323,5.0,Sonstiges,940000.0,0.0029068750686828486,55.0,89.0,12,32.0,7,0,3,6,78
1970,46.0987014770508,80.0,7.22294807434082,Bagnes,1936,3.0,Wohnung,1250000.0,0.0002684576505750181,59.0,86.0,9,41.0,3,0,0,3,21
1993,46.3076286315918,118.0,6.18225383758545,Tannay,1295,3.0,Wohnung,1065000.0,0.4195131109170749,15.0,19.0,3,21.0,13,0,3,11,85
2017,47.2766304016113,154.0,8.34605979919434,Muri (AG),5630,5.0,Wohnung,990000.0,0.0,21.0,39.0,6,16.0,3,0,0,3,27
2004,47.3233985900879,192.0,8.440159797668459,Islisberg,8905,5.0,Sonstiges,990000.0,0.0,12.0,28.0,10,40.0,4,0,3,3,79
1998,47.38383483886721,89.0,8.573277473449709,Zürich,8044,3.0,Wohnung,1185000.0,0.00023720090589975126,0.0,0.0,5,35.0,3,0,0,3,58
1974,46.1045341491699,180.0,7.22438621520996,Bagnes,1936,6.0,Wohnung,2590000.0,0.0002684576505750181,59.0,86.0,9,30.0,3,0,0,3,12
2004,46.9371223449707,162.0,7.35457611083984,Bern,3019,5.0,Wohnung,920000.0,0.0,0.0,0.0,21,34.0,3,0,0,3,84
1997,47.051975250244105,134.0,8.25852298736572,Luzern,6014,5.0,Wohnung,990000.0,0.018853181107544952,34.0,72.0,9,55.0,9,0,4,5,189
2015,45.9922752380371,117.0,8.9410514831543,Lugano,6900,3.0,Wohnung,1250000.0,0.09859520763720872,0.0,0.0,7,62.0,6,0,0,6,133
2010,46.45959091186521,80.0,9.79555511474609,Silvaplana,7513,3.0,Wohnung,1250000.0,0.28893841356915434,94.0,227.0,12,75.0,3,0,0,3,17
2019,46.5194702148438,90.0,6.656146049499509,Lausanne,1012,3.0,Wohnung,1180000.0,0.0,0.0,0.0,9,17.0,0,0,0,0,19
2017,47.52084732055661,137.0,8.58306884765625,Embrach,8424,5.0,Sonstiges,952000.0,0.01012585474817222,14.0,27.0,2,12.0,0,0,0,0,7
2016,47.3241844177246,205.0,8.20345973968506,Seengen,5707,6.0,Wohnung,985000.0,0.06831738832657637,31.0,53.0,7,26.0,0,0,0,0,39
2016,46.1503715515137,118.0,8.77688503265381,Ascona,6612,2.0,Wohnung,1125000.0,0.39673734457974336,35.0,74.0,7,36.0,3,0,0,3,14
1986,46.4339370727539,80.0,9.76391983032227,Sils im Engadin/Segl,7514,3.0,Wohnung,1100000.0,0.035889076819932794,91.0,237.0,8,57.0,3,0,0,3,20
2019,47.391658782959006,118.0,8.68566131591797,Volketswil,8604,4.0,Wohnung,1250000.0,0.006986053339175553,11.0,18.0,7,16.0,3,0,0,3,30
2018,46.983470916748,103.0,9.56951522827148,Malans,7208,3.0,Wohnung,1040000.0,0.0,59.0,76.0,9,11.0,0,0,0,0,27
1997,47.259735107421896,100.0,8.59253597259521,Horgen,8810,3.0,Wohnung,1250000.0,0.22082834194194706,15.0,12.0,5,36.0,3,0,3,3,70
2010,47.1494750976562,151.0,9.14509677886963,Amden,8873,5.0,Wohnung,965000.0,0.0,38.0,73.0,5,33.0,3,0,3,3,34
2016,46.862213134765604,140.0,8.64790725708008,Schattdorf,6467,6.0,Wohnung,995000.0,0.011176973725777844,51.0,89.0,1,1.0,0,0,0,0,3
1973,47.5456352233887,177.0,9.28918361663818,Amriswil,8580,6.0,Wohnung,995000.0,0.00014254443406555966,52.0,64.0,1,10.0,3,0,0,3,30
1984,46.728874206543,75.0,9.558518409729,Vaz/Obervaz,7078,3.0,Wohnung,1150000.0,0.009322927500685665,85.0,120.0,8,32.0,0,0,0,0,40
2007,47.218017578125,142.0,8.61100482940674,Hirzel,8816,3.0,Wohnung,1150000.0,0.0008799615153830098,15.0,35.0,11,13.0,3,0,0,3,37
2019,46.936550140380895,110.0,7.498723983764651,Bern,3073,4.0,Wohnung,1380000.0,0.0,6.0,14.0,12,21.0,3,0,3,3,39
2018,46.973934173584006,114.0,7.4939980506897,Bolligen,3065,3.0,Wohnung,1040000.0,0.0,6.0,14.0,4,8.0,3,0,3,3,9
2016,46.176334381103494,102.0,8.79693698883057,Orselina,6644,3.0,Wohnung,1240000.0,0.023616973033862003,34.0,76.0,2,11.0,3,0,0,3,3
2010,46.8559074401855,125.0,9.53128814697266,Chur,7000,5.0,Wohnung,960000.0,0.003456478455535217,66.0,79.0,8,57.0,10,0,0,10,102
2016,47.362434387207,134.0,8.38876056671143,Rudolfstetten-Friedlisberg,8964,5.0,Wohnung,980000.0,0.0,13.0,21.0,14,34.0,3,0,0,3,55
2017,47.21464538574221,151.0,8.09844017028809,Büron,6233,5.0,Wohnung,990000.0,0.0009968397473501733,40.0,69.0,4,40.0,3,0,0,3,105
2011,47.4504241943359,150.0,8.4695348739624,Regensdorf,8106,5.0,Wohnung,1470000.0,0.0,9.0,6.0,12,25.0,3,0,0,3,60
2019,46.8329277038574,60.0,9.28135967254639,Flims,7017,3.0,Wohnung,1010000.0,0.0020730426010818147,78.0,119.0,0,0.0,3,0,0,3,0
2018,47.4035720825195,124.0,8.50062561035156,Zürich,8049,4.0,Wohnung,2480000.0,0.028963496002546264,0.0,0.0,10,19.0,3,0,0,3,47
1998,47.3253059387207,315.0,8.19912815093994,Seengen,5707,7.0,Wohnung,1480000.0,0.0302353151078435,31.0,53.0,5,41.0,3,0,0,3,89
2005,47.512481689453104,155.0,8.54026222229004,Bülach,8180,4.0,Wohnung,1490000.0,0.00015612591719457494,14.0,18.0,7,49.0,3,0,0,3,131
2016,47.0019950866699,160.0,8.62077808380127,Ingenbohl,6440,5.0,Wohnung,1270000.0,0.015246859714301125,38.0,56.0,8,28.0,3,0,0,3,74
2010,47.1100730895996,135.0,7.25379514694214,Port,2562,4.0,Wohnung,1240000.0,0.011110485864148908,25.0,48.0,3,17.0,0,0,0,0,28
1985,46.1004486083984,67.0,7.21001434326172,Bagnes,1936,3.0,Wohnung,1050000.0,0.0,59.0,86.0,10,10.0,0,0,0,0,6
1985,46.1015014648438,67.0,7.22823858261108,Bagnes,1936,3.0,Wohnung,1050000.0,0.0002684576505750181,59.0,86.0,7,24.0,0,0,0,0,8
2011,46.7771530151367,73.0,9.66496181488037,Arosa,7050,3.0,Wohnung,1250000.0,0.0004005580353696661,90.0,154.0,9,18.0,0,0,0,0,9
2018,47.1374664306641,110.0,8.59978485107422,Oberägeri,6315,2.0,Wohnung,1140000.0,0.3377396913282389,30.0,55.0,5,10.0,0,0,0,0,15
1989,46.806182861328104,120.0,9.84121990203857,Davos,7260,5.0,Wohnung,1590000.0,0.012286435876113192,95.0,141.0,9,32.0,0,0,0,0,18
2015,47.042537689209006,104.0,8.32125282287598,Luzern,6005,3.0,Wohnung,1200000.0,0.3388003685338177,31.0,48.0,7,66.0,11,0,3,9,162
2010,47.609256744384794,145.0,9.29955959320068,Güttingen,8594,4.0,Wohnung,1600000.0,0.4680007476949266,48.0,96.0,9,12.0,6,0,0,6,32
2016,47.0159759521484,199.0,8.481687545776369,Vitznau,6354,4.0,Wohnung,2960000.0,0.2851768941945831,35.0,102.0,1,4.0,0,0,0,0,7
2003,46.6278228759766,78.0,8.04606819152832,Grindelwald,3818,3.0,Wohnung,1250000.0,0.0,50.0,98.0,4,14.0,0,0,0,0,3
1992,46.100341796875,73.0,7.21049308776855,Bagnes,1936,3.0,Wohnung,1090000.0,0.0,59.0,86.0,10,10.0,0,0,0,0,6
1993,46.165885925293,109.0,8.796430587768551,Locarno,6600,4.0,Wohnung,1160000.0,0.16250849379319318,35.0,57.0,3,23.0,30,0,3,29,80
2018,46.1771049499512,166.0,8.810361862182619,Minusio,6648,4.0,Wohnung,2900000.0,0.12453196037047926,33.0,72.0,24,58.0,11,0,4,7,85
2009,47.4295310974121,180.0,8.57564449310303,Opfikon,8152,4.0,Wohnung,1690000.0,0.010333141085460507,8.0,3.0,3,23.0,0,0,0,0,59
2012,46.80195617675779,103.0,9.254714012146,Laax,7031,3.0,Wohnung,1135000.0,0.011415399597735841,81.0,134.0,7,50.0,4,0,0,4,53
1993,46.869869232177706,81.0,9.88196849822998,Klosters-Serneus,7250,3.0,Sonstiges,1015000.0,0.015242648037309884,85.0,112.0,7,44.0,7,3,0,6,33
2015,45.994701385498,86.0,8.91630744934082,Muzzano,6933,3.0,Wohnung,1010000.0,0.15612198283081088,10.0,18.0,6,6.0,3,0,3,0,14
1965,46.499786376953104,105.0,9.83798122406006,St. Moritz,7500,4.0,Wohnung,1430000.0,0.13597942286198522,99.0,203.0,9,52.0,5,0,0,5,20
2018,47.049137115478494,150.0,8.36526203155518,Meggen,6045,4.0,Wohnung,2409000.0,0.0005677520522066683,35.0,67.0,8,10.0,0,0,0,0,19
2019,47.3051834106445,88.0,8.60422897338867,Erlenbach (ZH),8703,3.0,Wohnung,1250000.0,0.0012220076045683145,12.0,9.0,7,30.0,0,0,0,0,42
2011,47.225170135498,132.0,8.26158046722412,Hitzkirch,6285,3.0,Wohnung,990000.0,8.383821900178748e-05,32.0,69.0,8,38.0,17,0,3,16,59
2013,47.1122245788574,210.0,7.3054060935974094,Studen (BE),2557,5.0,Wohnung,1290000.0,0.0037804849454429303,21.0,35.0,11,19.0,3,0,0,3,47
1969,47.2345161437988,165.0,8.64993286132812,Wädenswil,8820,6.0,Wohnung,1540000.0,0.005864793603253461,18.0,18.0,9,17.0,3,0,0,3,41
2005,46.5804023742676,100.0,9.92166042327881,La Punt-Chamues-ch,7522,3.0,Wohnung,1090000.0,0.02056910193485428,109.0,179.0,5,29.0,3,0,0,3,53
2020,47.1381683349609,141.0,8.61305904388428,Oberägeri,6315,3.0,Wohnung,2610000.0,0.2126573236221219,30.0,55.0,6,11.0,3,0,0,3,18
2019,46.7469291687012,113.0,7.646605968475339,Hilterfingen,3626,3.0,Wohnung,1210000.0,0.24467494084871075,25.0,42.0,9,9.0,3,0,3,3,18
1600,47.5233268737793,145.0,7.572838306426999,Bottmingen,4103,3.0,Wohnung,1195000.0,0.002784365774019057,6.0,12.0,14,40.0,12,3,3,10,132
1979,47.186370849609396,208.0,8.7468090057373,Feusisberg,8835,7.0,Wohnung,2570000.0,0.0,20.0,32.0,5,45.0,7,0,0,7,68
2016,47.3119697570801,147.0,8.39271068572998,Oberlunkhofen,8917,3.0,Wohnung,1130000.0,0.0,14.0,23.0,10,52.0,6,0,3,4,84
2019,46.0354499816895,96.0,8.96151351928711,Comano,6949,3.0,Wohnung,1050000.0,0.010501610583719229,9.0,22.0,5,10.0,4,0,0,4,16
2008,47.4952812194824,165.0,8.90330696105957,Aadorf,8355,5.0,Wohnung,1250000.0,0.003677542086330913,31.0,31.0,15,64.0,3,0,0,3,135
2010,46.7957763671875,126.0,9.81814575195312,Davos,7270,4.0,Wohnung,2400000.0,0.0061695181220981716,95.0,141.0,3,22.0,0,0,0,0,7
1972,46.7244453430176,120.0,9.55771160125732,Vaz/Obervaz,7078,3.0,Wohnung,1185000.0,0.00013091804085950084,85.0,120.0,2,14.0,5,0,0,5,8
2018,47.366241455078104,115.0,8.7696704864502,Pfäffikon,8330,4.0,Wohnung,1340000.0,0.15383690632625496,17.0,26.0,0,0.0,0,0,0,0,0
1990,45.924007415771506,208.0,8.91710472106934,Morcote,6922,4.0,Wohnung,3420000.0,0.5424810272530274,15.0,31.0,6,11.0,0,0,0,0,4
1978,47.559597015380895,124.0,7.5804305076599094,Basel,4056,4.0,Wohnung,1050000.0,0.08236671737265944,0.0,0.0,4,18.0,6,0,3,5,47
2018,47.684268951415994,123.0,8.66542339324951,Feuerthalen,8246,4.0,Wohnung,1380000.0,0.0605301524155878,33.0,56.0,2,3.0,3,3,0,0,3
2016,46.0074462890625,139.0,8.95506477355957,Lugano,6900,3.0,Wohnung,1250000.0,0.1638878315870734,0.0,0.0,4,25.0,268,0,18,250,44
2002,47.26029968261721,128.0,8.685092926025389,Männedorf,8708,4.0,Wohnung,1560000.0,0.203377186571422,21.0,19.0,3,26.0,3,0,0,3,63
1964,46.10718154907229,79.0,7.2246599197387695,Bagnes,1936,3.0,Wohnung,1080000.0,0.0002684576505750181,59.0,86.0,7,9.0,0,0,0,0,4
2011,46.7049026489258,131.0,7.72957706451416,Sigriswil,3658,3.0,Wohnung,1190000.0,0.42977645691572414,27.0,49.0,9,17.0,0,0,0,0,20
2015,46.1548080444336,152.0,8.77250194549561,Ascona,6612,4.0,Wohnung,1830000.0,0.2287579701812852,35.0,74.0,12,41.0,6,0,0,6,45
2018,46.797088623046896,112.0,9.82046031951904,Davos,7270,3.0,Wohnung,1090000.0,0.006429629546473481,95.0,141.0,7,30.0,4,0,3,3,29
2020,47.122951507568395,79.0,9.3237886428833,Küsnacht (ZH),8700,2.0,Wohnung,1136000.0,0.0,47.0,74.0,10,13.0,3,0,0,3,31
2018,47.203094482421896,96.0,8.68781852722168,Richterswil,8805,3.0,Wohnung,1010000.0,0.009878260516195385,16.0,24.0,17,19.0,3,0,0,3,50
2018,47.51468658447271,143.0,7.5458464622497585,Oberwil (BL),4104,5.0,Wohnung,1750000.0,0.0,9.0,19.0,7,7.0,0,0,0,0,18
1973,46.0964126586914,81.0,7.23450374603271,Bagnes,1936,3.0,Wohnung,1030000.0,0.0002684576505750181,59.0,86.0,9,10.0,3,0,0,3,5
1988,46.82446670532229,114.0,9.26220607757568,Laax,7032,3.0,Sonstiges,1190000.0,0.004973908910486257,81.0,134.0,7,15.0,0,0,0,0,6
2011,47.3875961303711,88.0,8.48360919952393,Zürich,8048,3.0,Wohnung,1050000.0,0.0,0.0,0.0,7,45.0,23,3,4,18,153
1930,45.955207824707,163.0,8.945051193237301,Melide,6815,4.0,Wohnung,1290000.0,0.2777099361502364,11.0,8.0,4,20.0,3,0,0,3,38
2016,46.4882392883301,69.0,7.26489925384521,Saanen,3792,2.0,Wohnung,1046520.0,0.008836381932723566,61.0,109.0,6,31.0,3,0,3,3,45
2011,46.83564758300779,110.0,9.28802490234375,Flims,7017,3.0,Wohnung,1250000.0,0.0,78.0,119.0,8,70.0,0,0,0,0,13
2011,47.2766914367676,134.0,8.45423126220703,Affoltern am Albis,8910,5.0,Wohnung,1300000.0,0.001494301467690376,15.0,22.0,20,38.0,3,0,0,3,122
2012,46.828453063964794,139.0,9.28634929656982,Flims,7018,3.0,Sonstiges,1141000.0,0.00915124048067696,78.0,119.0,6,24.0,0,0,0,0,13
2011,47.5499954223633,160.0,7.5483922958374,Allschwil,4123,3.0,Wohnung,1880000.0,0.0002544306460593243,8.0,6.0,19,80.0,6,0,3,4,162
2005,47.02897644042971,132.0,8.452710151672362,Weggis,6353,4.0,Wohnung,1550000.0,0.3295051309949026,32.0,84.0,5,9.0,3,0,0,3,16
2006,47.475006103515604,157.0,7.593242645263669,Aesch (BL),4147,5.0,Wohnung,1420000.0,0.010361863385606532,11.0,14.0,17,39.0,3,0,0,3,100
2018,46.686527252197294,111.0,9.56340503692627,Lantsch/Lenz,7083,3.0,Wohnung,1195000.0,6.909340792055775e-05,88.0,133.0,7,26.0,3,0,0,3,9
2007,47.42147064208979,143.0,8.54637622833252,Zürich,8052,3.0,Wohnung,1390000.0,0.0,0.0,0.0,1,4.0,3,0,0,3,14
2020,47.4786148071289,163.0,9.12260913848877,Zuzwil (SG),9524,4.0,Wohnung,1450000.0,0.0,37.0,66.0,1,2.0,0,0,0,0,3
2016,47.2462310791016,153.0,8.49356174468994,Rifferswil,8911,3.0,Wohnung,1090000.0,0.0,17.0,38.0,9,17.0,3,0,3,0,29
2019,47.248233795165994,138.0,8.633726119995119,Wädenswil,8804,4.0,Wohnung,1785000.0,0.3084326018068429,18.0,18.0,12,34.0,3,0,0,3,72
2017,47.5235710144043,110.0,8.53857040405273,Bülach,8180,3.0,Wohnung,1070000.0,0.0005257246378319035,14.0,18.0,7,17.0,3,0,0,3,31
2011,46.770965576171896,130.0,7.020756721496579,La Brillaz,1756,4.0,Mehrfamilienhaus,835000.0,0.0003794200257516684,29.0,59.0,6,6.0,0,0,0,0,20
2017,47.206169128418,101.0,8.69180488586426,Richterswil,8805,3.0,Wohnung,1180000.0,0.0,16.0,24.0,6,14.0,3,0,0,3,26
2016,47.5338020324707,133.0,7.587599277496339,Basel,4059,3.0,Wohnung,1750000.0,0.0005306114662467344,0.0,0.0,12,26.0,9,0,0,9,54
2018,46.84928131103521,118.0,9.528947830200199,Chur,7000,3.0,Wohnung,1125000.0,0.0047862244461902605,66.0,79.0,4,20.0,27,0,3,25,34
1995,47.2856979370117,140.0,8.61971855163574,Herrliberg,8704,5.0,Wohnung,1625000.0,0.0686670736152575,15.0,13.0,10,15.0,3,0,0,3,44
2017,47.5180740356445,154.0,8.54595375061035,Bülach,8180,4.0,Wohnung,1395000.0,0.00042943299954465667,14.0,18.0,3,28.0,0,0,0,0,59
2007,47.0737915039062,150.0,7.314913749694821,Lyss,3250,4.0,Wohnung,1440000.0,0.006374091144651939,20.0,22.0,23,26.0,3,0,0,3,75
2013,47.4266700744629,185.0,8.301754951477049,Niederrohrdorf,5443,5.0,Wohnung,1695000.0,0.0,19.0,38.0,8,63.0,6,0,0,6,110
2016,47.50156021118161,219.0,8.34499549865723,Ehrendingen,5420,5.0,Wohnung,1470000.0,0.005500260820285428,23.0,39.0,16,35.0,3,0,0,3,87
2007,47.3557014465332,168.0,8.58609676361084,Zürich,8053,5.0,Wohnung,2920000.0,0.00016733597983522626,0.0,0.0,8,12.0,3,0,0,3,33
1992,46.09297943115229,73.0,7.230960845947268,Bagnes,1936,3.0,Wohnung,1090000.0,0.0,59.0,86.0,6,47.0,3,0,0,3,16
2014,47.35007095336911,178.0,8.44434261322021,Birmensdorf (ZH),8903,6.0,Wohnung,1990000.0,0.0008640453416699813,7.0,9.0,9,14.0,0,0,0,0,36
2013,46.01131439208979,200.0,8.95379066467285,Lugano,6900,4.0,Wohnung,2700000.0,0.019697171459126882,0.0,0.0,10,63.0,48,0,4,44,109
2018,46.88212585449221,138.0,8.22619152069092,Sarnen,6062,4.0,Wohnung,1620000.0,0.4187869930286056,47.0,84.0,4,13.0,3,0,0,3,23
2004,47.472808837890604,267.0,9.05010414123535,Wil (SG),9500,7.0,Wohnung,1850000.0,0.004217623402239593,33.0,47.0,5,22.0,3,0,0,3,53
2003,47.3578414916992,280.0,8.10038375854492,Gränichen,5722,3.0,Wohnung,1400000.0,0.008350124744763099,31.0,45.0,9,32.0,4,0,0,4,97
2017,47.0107269287109,160.0,7.4884357452392605,Moosseedorf,3302,4.0,Wohnung,1680000.0,0.0032051020112960635,10.0,18.0,10,25.0,0,0,0,0,43
2016,47.168209075927706,173.0,8.095912933349611,Sursee,6210,5.0,Wohnung,1590000.0,0.000337743996513687,45.0,57.0,3,30.0,3,0,0,3,112
2006,46.9573364257812,195.0,8.336231231689451,Ennetmoos,6372,6.0,Wohnung,1350000.0,0.0,48.0,98.0,7,36.0,3,3,0,3,82
2017,47.5542984008789,83.0,7.572707653045652,Basel,4054,4.0,Sonstiges,1190000.0,0.0017662030185292368,0.0,0.0,43,85.0,15,0,3,13,153
1964,46.1050415039062,79.0,7.22693157196045,Bagnes,1936,3.0,Wohnung,1080000.0,0.0002684576505750181,59.0,86.0,8,27.0,0,0,0,0,5
2017,47.479244232177706,203.0,9.48070049285889,Goldach,9403,5.0,Wohnung,1490000.0,0.2517100797231955,54.0,83.0,8,60.0,3,0,0,3,119
2006,46.1769905090332,126.0,6.872971534729,Champéry,1874,3.0,Wohnung,1250000.0,0.009106939035215072,44.0,99.0,4,32.0,0,0,0,0,13
2017,46.229621887207,228.0,7.3466281890869105,Sion,1950,5.0,Wohnung,1860000.0,0.008830106751150521,55.0,60.0,13,114.0,3,0,3,3,247
2017,47.5059814453125,104.0,8.54855632781982,Bachenbülach,8184,3.0,Wohnung,1145000.0,0.0,13.0,26.0,13,31.0,3,0,0,3,78
2005,47.1911773681641,275.0,8.85095500946045,Lachen,8853,6.0,Wohnung,2450000.0,0.24707655389805705,24.0,31.0,8,40.0,18,0,3,15,105
1963,46.81164932250979,143.0,9.847344398498539,Davos,7260,4.0,Wohnung,1470000.0,0.08764868584643584,95.0,141.0,4,18.0,3,3,0,3,20
2007,46.8368148803711,121.0,9.28973293304443,Flims,7017,4.0,Wohnung,1155000.0,0.0,78.0,119.0,5,41.0,3,0,0,3,26
2020,47.5724601745605,180.0,7.6547269821167,Riehen,4125,4.0,Wohnung,2390000.0,0.0003171760341111868,7.0,6.0,4,4.0,0,0,0,0,9
1973,46.0910987854004,81.0,7.23169231414795,Bagnes,1936,3.0,Wohnung,1030000.0,0.0,59.0,86.0,6,58.0,3,0,3,0,18
2017,45.9594650268555,82.0,8.93822765350342,Lugano,6914,3.0,Wohnung,1050000.0,0.021300469109738412,11.0,25.0,8,14.0,3,0,0,3,17
2017,46.0122261047363,160.0,8.926633834838869,Lugano,6932,4.0,Wohnung,1550000.0,0.005149530205885136,7.0,10.0,2,10.0,3,0,0,3,9
2005,46.509578704834006,110.0,9.85685729980469,Celerina/Schlarigna,7505,3.0,Wohnung,1200000.0,0.013614484123650357,101.0,198.0,11,38.0,3,0,0,3,75
1993,47.1894683837891,265.0,8.68041610717773,Richterswil,8833,5.0,Wohnung,1550000.0,0.05158151420813492,16.0,24.0,1,1.0,3,0,0,3,3
2003,46.808910369873,110.0,9.84256839752197,Davos,7260,4.0,Wohnung,1125000.0,0.030530989597907413,95.0,141.0,4,30.0,4,0,3,3,31
2016,47.36763000488279,145.0,8.52854156494141,Zürich,8002,4.0,Wohnung,3200000.0,0.05976087737849161,0.0,0.0,8,40.0,4,0,0,4,46
2017,47.5655097961426,149.0,8.26826667785645,Döttingen,5312,4.0,Wohnung,1250000.0,0.010483345840840787,30.0,48.0,3,28.0,0,0,0,0,7
1993,46.4396362304688,140.0,6.91104602813721,Montreux,1820,4.0,Wohnung,1100000.0,0.1822900457416575,22.0,20.0,4,25.0,4,0,3,3,55
2018,47.5387763977051,127.0,8.72845935821533,Seuzach,8472,4.0,Sonstiges,1050000.0,0.0016154958064825086,20.0,30.0,5,19.0,0,0,0,0,32
2012,46.3802375793457,155.0,7.63114166259766,Leukerbad,3954,4.0,Wohnung,1350000.0,0.0,80.0,124.0,5,50.0,3,0,0,3,20
2016,47.360679626464794,100.0,8.599719047546388,Zürich,8053,3.0,Wohnung,1090000.0,0.0,0.0,0.0,6,39.0,3,0,0,3,79
2017,47.4156341552734,236.0,9.43696975708008,Speicher,9042,5.0,Wohnung,1675000.0,0.0001971475365069481,58.0,103.0,6,29.0,5,0,0,5,35
1999,46.734710693359396,156.0,7.669734954833982,Oberhofen am Thunersee,3653,4.0,Wohnung,1230000.0,0.18520520661196516,26.0,48.0,9,34.0,3,0,3,3,56
2016,46.001613616943395,131.0,8.94395446777344,Lugano,6900,4.0,Wohnung,1350000.0,0.14135891851903834,0.0,0.0,4,20.0,3,0,0,3,36
2002,47.3742485046387,168.0,8.63620948791504,Fällanden,8117,4.0,Wohnung,1330000.0,0.007071838980609015,7.0,8.0,15,40.0,3,0,0,3,97
2020,47.4156837463379,107.0,8.55476188659668,Zürich,8050,3.0,Sonstiges,1090000.0,0.003644574991159665,0.0,0.0,0,0.0,3,0,0,3,0
2017,47.4789009094238,202.0,9.48097610473633,Goldach,9403,5.0,Wohnung,1390000.0,0.2421714880475396,54.0,83.0,2,10.0,3,0,0,3,19
2013,46.4459342956543,206.0,6.90486812591553,Montreux,1822,6.0,Wohnung,3390000.0,0.060349403953171364,22.0,20.0,4,8.0,0,0,0,0,15
2014,47.2442779541016,109.0,8.71984100341797,Stäfa,8712,3.0,Wohnung,1190000.0,0.1971212561444413,25.0,23.0,9,21.0,3,0,0,3,62
1970,46.0053901672363,92.0,8.97079849243164,Lugano,6900,2.0,Wohnung,1150000.0,0.2678882545626373,0.0,0.0,11,60.0,28,0,5,23,129
1983,46.795291900634794,118.0,9.82597255706787,Davos,7270,4.0,Wohnung,1090000.0,0.007613009231614841,95.0,141.0,4,26.0,3,0,3,0,35
2011,46.5203704833984,125.0,6.67192792892456,Belmont-sur-Lausanne,1092,4.0,Wohnung,1250000.0,0.0,7.0,9.0,1,10.0,3,0,0,3,79
1995,47.134559631347706,200.0,8.61238193511963,Oberägeri,6315,7.0,Wohnung,1290000.0,0.4580654507712832,30.0,55.0,9,54.0,9,0,3,8,108
1984,45.9985198974609,207.0,8.93697547912598,Sorengo,6924,6.0,Wohnung,2500000.0,0.0716988097334072,8.0,11.0,4,4.0,3,0,0,3,12
2018,47.09704208374021,113.0,8.52201271057129,Walchwil,6318,3.0,Wohnung,1195000.0,0.2492191223011203,33.0,47.0,11,27.0,3,0,3,3,57
2017,47.6721076965332,151.0,9.08435440063477,Ermatingen,8272,4.0,Wohnung,1390000.0,0.5320295838466375,42.0,93.0,8,35.0,0,0,0,0,62
1982,46.117359161377,165.0,8.70719718933105,Brissago,6614,4.0,Wohnung,1280000.0,0.32352303613457234,41.0,89.0,5,27.0,3,0,0,3,8
2012,45.9841804504395,205.0,8.910383224487301,Collina d'Oro,6926,4.0,Wohnung,2500000.0,0.3764858915097405,12.0,17.0,9,18.0,3,0,0,3,12
1970,46.001293182373,120.0,8.976325035095211,Lugano,6976,3.0,Wohnung,1220000.0,0.5065702451470206,0.0,0.0,11,20.0,3,0,0,3,22
1965,46.00341796875,183.0,8.97289943695068,Lugano,6976,4.0,Wohnung,2900000.0,0.3733615753962197,0.0,0.0,12,39.0,4,0,0,4,73
1969,47.311798095703104,65.0,9.27601146697998,Urnäsch,9107,3.0,Wohnung,250000.0,0.013332116190921138,55.0,91.0,6,16.0,3,0,3,3,29
2008,46.000823974609396,230.0,8.904866218566891,Agno,6982,5.0,Wohnung,1900000.0,0.054245153102844265,10.0,22.0,4,38.0,14,0,3,13,132
2019,47.3876762390137,131.0,8.07938194274902,Buchs (AG),5033,4.0,Wohnung,1040000.0,0.01462436075726688,27.0,41.0,14,21.0,3,0,3,3,42
2019,46.28659439086911,92.0,6.1540961265564,Versoix,1290,4.0,Wohnung,1170000.0,0.00010497040968068713,13.0,17.0,8,8.0,0,0,0,0,23
2015,47.3113136291504,137.0,8.58412837982178,Küsnacht (ZH),8700,3.0,Wohnung,2750000.0,0.4344825176166328,10.0,6.0,7,42.0,4,0,3,3,61
2016,47.553863525390604,210.0,9.30859279632568,Amriswil,8580,4.0,Wohnung,1425000.0,0.006797078376130568,52.0,64.0,8,33.0,3,0,0,3,61
1967,47.54988098144529,138.0,7.610488414764402,Basel,4052,4.0,Wohnung,1150000.0,0.0863726279292257,0.0,0.0,10,79.0,3,0,0,3,151
2018,46.135124206543,134.0,8.8275146484375,Gambarogno,6579,4.0,Wohnung,1250000.0,0.12452249764600043,34.0,80.0,7,22.0,3,0,3,3,15
1900,47.5178375244141,173.0,7.6998028755188,Pratteln,4133,5.0,Wohnung,1180000.0,0.0,10.0,14.0,11,32.0,3,0,0,3,67
2007,47.4178619384766,111.0,8.549619674682619,Zürich,8052,4.0,Wohnung,1100000.0,0.0,0.0,0.0,8,35.0,3,0,0,3,81
2017,47.4876594543457,200.0,8.59333992004395,Lufingen,8426,5.0,Sonstiges,1090000.0,0.0012854183372904213,12.0,22.0,14,23.0,3,0,0,3,106
1995,47.1827392578125,111.0,8.49240112304688,Zug,6300,4.0,Wohnung,1040000.0,0.1254778928474594,25.0,27.0,11,92.0,8,0,0,8,263
1981,46.9683647155762,150.0,7.38954401016235,Bern,3032,5.0,Sonstiges,1100000.0,0.07246340379228748,11.0,15.0,20,51.0,5,0,0,5,117
2011,47.475337982177706,142.0,8.50819492340088,Oberglatt,8154,5.0,Wohnung,1135000.0,0.005503448728696265,10.0,9.0,2,10.0,0,0,0,0,24
2017,47.010704040527294,160.0,7.48718166351318,Moosseedorf,3302,4.0,Wohnung,1750000.0,0.004120139833296864,10.0,18.0,12,22.0,0,0,0,0,34
2018,47.5564155578613,99.0,7.55903100967407,Allschwil,4123,4.0,Wohnung,1190000.0,0.0,8.0,6.0,11,55.0,8,0,3,6,76
2020,47.4152641296387,136.0,8.55392265319824,Zürich,8050,3.0,Wohnung,2050000.0,0.0017492017680549947,0.0,0.0,0,0.0,8,0,0,8,0
2013,47.2021408081055,176.0,8.11038398742676,Geuensee,6232,4.0,Wohnung,1220000.0,0.00020654682474352776,40.0,65.0,8,14.0,0,0,0,0,27
2019,47.503746032714794,129.0,8.33124446868896,Freienwil,5423,4.0,Wohnung,1090000.0,0.003066908926031177,22.0,40.0,2,3.0,0,0,0,0,3
2018,46.8230323791504,140.0,7.14749670028687,Granges-Paccot,1763,4.0,Wohnung,1075000.0,0.04591184428801303,19.0,47.0,9,30.0,3,0,0,3,59
2018,47.5076179504395,117.0,7.60174655914307,Reinach (BL),4153,4.0,Wohnung,1130000.0,0.013903323300560013,12.0,15.0,7,24.0,3,0,0,3,46
2017,46.9865913391113,139.0,9.56788063049316,Malans,7208,4.0,Wohnung,1073380.0,0.0,59.0,76.0,6,9.0,0,0,0,0,12
1988,47.468166351318395,185.0,9.4835844039917,Rorschacherberg,9404,6.0,Wohnung,1120000.0,0.0,57.0,91.0,14,22.0,0,0,0,0,36
1972,46.49434661865229,120.0,7.264147281646731,Saanen,3792,6.0,Sonstiges,1150000.0,0.00448362438641286,61.0,109.0,1,5.0,0,0,0,0,3
2011,47.164192199707,123.0,8.55439949035645,Baar,6319,4.0,Wohnung,1150000.0,0.010308976769709377,22.0,22.0,17,38.0,4,0,3,3,92
2011,46.1790237426758,165.0,8.82717037200928,Minusio,6648,4.0,Wohnung,1280000.0,0.28403799464441304,33.0,72.0,8,49.0,11,0,3,9,112
2010,47.3022117614746,112.0,8.76597023010254,Gossau (ZH),8625,4.0,Wohnung,1120000.0,0.00041654750211108613,20.0,31.0,6,25.0,3,0,0,3,64
2018,46.7822952270508,123.0,7.608228206634519,Heimberg,3627,4.0,Wohnung,1085000.0,0.022664088827317,16.0,38.0,7,35.0,3,0,0,3,62
2009,47.417083740234396,130.0,8.583081245422362,Wallisellen,8304,4.0,Wohnung,1050000.0,0.007474328686796408,7.0,3.0,2,18.0,3,0,0,3,63
2014,46.140697479248,135.0,8.72684383392334,Ronco sopra Ascona,6613,2.0,Wohnung,1350000.0,0.42912125055152817,40.0,86.0,12,39.0,6,0,3,5,27
2014,47.136234283447294,172.0,8.32028961181641,Eschenbach (LU),6274,5.0,Wohnung,1580000.0,0.0,30.0,73.0,8,27.0,0,0,0,0,65
1995,46.3306732177734,107.0,6.19079875946045,Founex,1297,5.0,Sonstiges,1200000.0,0.029435053401735276,17.0,24.0,7,31.0,6,0,0,6,71
2018,47.048976898193395,150.0,8.366030693054201,Meggen,6045,4.0,Wohnung,2335000.0,0.0005677520522066683,35.0,67.0,7,25.0,3,0,0,3,39
2014,47.31098937988279,163.0,8.58439636230469,Küsnacht (ZH),8700,4.0,Wohnung,3375000.0,0.4322442896929166,10.0,6.0,7,42.0,4,0,3,3,61
1900,46.5292816162109,120.0,6.62146282196045,Lausanne,1004,5.0,Wohnung,1195000.0,0.0,0.0,0.0,4,19.0,11,0,3,10,44
2007,47.2913475036621,160.0,8.23426818847656,Meisterschwanden,5616,4.0,Sonstiges,1020000.0,0.018509301359072243,31.0,60.0,12,26.0,3,0,0,3,64
2011,47.4274101257324,132.0,9.39640998840332,St. Gallen,9000,4.0,Wohnung,1165000.0,0.010779845802654387,48.0,71.0,5,16.0,3,0,0,3,38
2010,47.4711227416992,133.0,9.50766754150391,Rorschacherberg,9404,4.0,Wohnung,1090000.0,0.009976754016560377,57.0,91.0,2,7.0,3,0,0,3,14
2013,47.5728225708008,141.0,8.51948356628418,Eglisau,8193,4.0,Wohnung,998000.0,0.07489798769975572,18.0,23.0,17,49.0,3,0,0,3,130
1985,47.054416656494105,170.0,8.337161064147951,Luzern,6006,4.0,Wohnung,1700000.0,0.2576210909761961,31.0,48.0,3,10.0,3,0,0,3,13
2018,47.4224052429199,135.0,8.49917888641357,Zürich,8046,4.0,Wohnung,1450000.0,0.0,0.0,0.0,4,38.0,6,0,0,6,137
2014,47.133331298828104,126.0,8.75229454040527,Einsiedeln,8840,4.0,Wohnung,1020000.0,0.018710614310645773,27.0,42.0,9,22.0,0,0,0,0,31
1972,46.478668212890604,115.0,9.81392860412598,St. Moritz,7512,3.0,Wohnung,1350000.0,0.05309792400588559,99.0,203.0,6,37.0,3,0,0,3,27
2006,47.2395515441895,137.0,8.80882930755615,Rapperswil-Jona,8645,4.0,Sonstiges,1250000.0,0.33588747643403544,23.0,31.0,5,6.0,0,0,0,0,13
2011,46.8026351928711,120.0,9.83569717407227,Davos,7270,4.0,Wohnung,1250000.0,0.011971637349643998,95.0,141.0,10,64.0,12,0,3,10,76
2009,46.0081787109375,90.0,8.96480751037598,Lugano,6900,3.0,Wohnung,1465000.0,0.17795533221155266,0.0,0.0,8,47.0,3,0,0,3,162
1911,47.5682182312012,142.0,7.57613372802734,Basel,4056,4.0,Wohnung,1150000.0,0.09131527494175402,0.0,0.0,27,158.0,15,0,3,14,248
2018,47.6027946472168,153.0,8.99621105194092,Müllheim,8555,5.0,Wohnung,1123000.0,0.0004335377720989564,31.0,50.0,4,4.0,0,0,0,0,5
1926,47.564338684082,150.0,7.61438989639282,Basel,4058,6.0,Wohnung,1190000.0,0.10876398381529014,0.0,0.0,21,58.0,6,0,0,6,99
2009,46.79170989990229,127.0,7.13717317581177,Villars-sur-Glâne,1752,4.0,Wohnung,1050000.0,0.051683325580280284,19.0,44.0,8,23.0,3,0,0,3,62
2007,47.1925735473633,113.0,8.807732582092289,Altendorf,8852,4.0,Wohnung,1010000.0,0.035165682583729665,24.0,33.0,5,26.0,4,0,0,4,51
2017,47.235565185546896,176.0,8.65984153747559,Wädenswil,8820,5.0,Wohnung,2760000.0,0.280316758637326,18.0,18.0,0,0.0,0,0,0,0,0
2017,47.4081687927246,170.0,8.13546657562256,Rupperswil,5102,5.0,Wohnung,1250000.0,0.067716560220765,24.0,33.0,3,28.0,0,0,0,0,49
2019,47.4928092956543,107.0,9.469780921936039,Horn,9326,3.0,Wohnung,790000.0,0.4882672828998525,55.0,97.0,2,4.0,0,0,0,0,0
1971,47.3517036437988,144.0,8.64206123352051,Maur,8123,5.0,Wohnung,1150000.0,0.0003206810058919229,13.0,10.0,9,52.0,3,0,0,3,63
2012,47.4702301025391,155.0,7.5930905342102095,Aesch (BL),4147,4.0,Sonstiges,1070000.0,0.01083120463742092,11.0,14.0,12,28.0,0,0,0,0,45
2009,47.400806427002,149.0,8.62428951263428,Dübendorf,8600,4.0,Wohnung,1090000.0,0.01439225947572201,8.0,4.0,12,77.0,11,0,3,10,213
1976,47.3465728759766,126.0,8.605587959289549,Zollikon,8125,4.0,Wohnung,1100000.0,0.00022884087946013282,9.0,3.0,6,41.0,5,0,0,5,98
1978,47.4781074523926,150.0,8.32035446166992,Ennetbaden,5408,6.0,Wohnung,1125000.0,0.02884114524947352,17.0,32.0,12,13.0,3,0,0,3,43
2019,47.3239517211914,157.0,8.44078159332275,Islisberg,8905,4.0,Wohnung,1180000.0,0.0,12.0,28.0,10,22.0,3,0,0,3,48
2017,47.474430084228494,174.0,9.1887788772583,Niederhelfenschwil,9527,5.0,Wohnung,1070000.0,0.03246328804655384,41.0,78.0,2,2.0,0,0,0,0,6
2014,47.255821228027294,158.0,8.60974502563477,Horgen,8810,4.0,Wohnung,1050000.0,0.40128153682369816,15.0,12.0,4,30.0,6,0,0,6,81
1983,47.521148681640604,150.0,7.5608415603637695,Oberwil (BL),4104,7.0,Sonstiges,1223000.0,0.0006982673599325201,9.0,19.0,9,35.0,4,0,3,3,73
1996,47.238834381103494,138.0,8.74045372009277,Stäfa,8712,5.0,Wohnung,1180000.0,0.2059238946158881,25.0,23.0,10,30.0,3,3,0,3,71
2018,47.6840324401855,135.0,8.66569137573242,Feuerthalen,8246,5.0,Wohnung,1070000.0,0.0600038749813672,33.0,56.0,2,3.0,3,3,0,0,3
1990,47.0083885192871,165.0,9.53361892700195,Maienfeld,7304,5.0,Wohnung,1190000.0,0.0,58.0,76.0,2,6.0,3,3,0,0,6
1995,47.5706558227539,136.0,7.64299869537354,Riehen,4125,4.0,Wohnung,1150000.0,0.0003171760341111868,7.0,6.0,8,20.0,3,0,0,3,31
1990,46.0067253112793,117.0,8.95846652984619,Lugano,6900,4.0,Wohnung,1155000.0,0.2487235993263659,0.0,0.0,7,30.0,63,0,3,60,64
1973,47.2565307617188,134.0,8.696165084838869,Männedorf,8708,5.0,Wohnung,1095000.0,0.14218811738095044,21.0,19.0,8,29.0,0,0,0,0,53
2004,47.3952407836914,157.0,8.45285987854004,Schlieren,8952,5.0,Sonstiges,1080000.0,0.00016261222366410272,6.0,3.0,11,35.0,6,0,0,6,66
2018,47.2731132507324,108.0,8.10455703735352,Schmiedrued,5046,4.0,Wohnung,1090000.0,0.0,39.0,75.0,2,3.0,3,0,3,0,3
2018,47.161922454834006,165.0,9.46802616119385,Buchs (SG),9470,4.0,Wohnung,1180000.0,0.007902960750144595,62.0,70.0,3,8.0,0,0,0,0,3
2014,47.2866744995117,156.0,8.85834503173828,Hinwil,8340,5.0,Wohnung,1150000.0,0.0008214059715395468,22.0,25.0,8,25.0,3,0,0,3,44
1991,47.5308609008789,185.0,7.59075927734375,Basel,4059,5.0,Wohnung,1250000.0,0.0,0.0,0.0,14,36.0,3,0,0,3,83
1995,47.2373161315918,114.0,8.74408626556396,Stäfa,8712,4.0,Wohnung,1190000.0,0.2911908300929201,25.0,23.0,8,18.0,15,0,4,11,43
2009,47.485992431640604,118.0,7.6164035797119105,Dornach,4143,4.0,Wohnung,1050000.0,0.01569378697669132,11.0,10.0,13,22.0,0,0,0,0,52
2014,47.54782485961911,158.0,9.380495071411133,Egnach,9322,5.0,Wohnung,1094000.0,0.3026399617124304,59.0,87.0,6,30.0,3,0,0,3,61
1999,47.0249900817871,125.0,8.284755706787111,Kriens,6010,4.0,Wohnung,1150000.0,0.0,34.0,79.0,20,23.0,3,0,0,3,39
1974,46.98190689086911,165.0,9.576089859008787,Malans,7208,6.0,Wohnung,1100000.0,0.0,59.0,76.0,12,48.0,9,3,0,8,80
2011,47.339683532714794,169.0,8.84201431274414,Bäretswil,8345,5.0,Sonstiges,1115000.0,0.003530428869593189,24.0,39.0,5,27.0,3,0,0,3,58
2011,47.091827392578104,152.0,8.34909915924072,Buchrain,6033,4.0,Wohnung,1090000.0,0.009366929325032105,30.0,60.0,4,9.0,13,0,5,8,19
2017,47.1760368347168,196.0,8.354616165161131,Abtwil,5646,5.0,Wohnung,1150000.0,0.0,27.0,75.0,8,16.0,4,3,0,3,20
1829,47.459621429443395,158.0,8.6323709487915,Nürensdorf,8309,4.0,Wohnung,1250000.0,0.004893151735426103,16.0,21.0,10,10.0,3,0,0,3,18
1997,46.9814605712891,187.0,9.57779407501221,Malans,7208,5.0,Wohnung,980000.0,0.0,59.0,76.0,13,22.0,3,0,3,3,40
1925,46.700439453125,149.0,7.799283027648928,Beatenberg,3803,6.0,Wohnung,950000.0,0.0,36.0,82.0,12,32.0,0,0,0,0,35
2018,46.1860198974609,132.0,9.02821636199951,Bellinzona,6500,4.0,Wohnung,1250000.0,0.0,26.0,25.0,3,3.0,0,0,0,0,5
2003,47.484195709228494,162.0,7.7457103729248,Liestal,4410,4.0,Wohnung,1100000.0,0.010132472634663974,15.0,16.0,11,19.0,3,0,0,3,40
2007,47.226100921630895,150.0,8.93681716918945,Schmerikon,8716,5.0,Wohnung,1058000.0,0.3708103292581114,30.0,43.0,7,32.0,3,0,0,3,60
2017,47.361846923828104,135.0,8.10264587402344,Gränichen,5722,4.0,Wohnung,1090000.0,0.007805228406735602,31.0,45.0,9,9.0,0,0,0,0,23
2018,47.0459518432617,136.0,8.60618209838867,Steinen,6422,5.0,Wohnung,1090000.0,0.0297302103192385,35.0,57.0,11,19.0,5,0,3,3,60
2008,47.5688285827637,110.0,7.58877086639404,Basel,4057,4.0,Wohnung,1150000.0,0.12849928479440725,0.0,0.0,19,122.0,18,0,0,18,291
2017,46.7719497680664,127.0,9.06074810028076,Breil/Brigels,7165,4.0,Wohnung,1170000.0,0.01896672713631636,99.0,134.0,3,6.0,0,0,0,0,5
1999,47.3367729187012,114.0,8.47312355041504,Wettswil am Albis,8907,4.0,Wohnung,1050000.0,0.02166191391296951,16.0,14.0,20,39.0,3,0,3,3,97
1991,47.3914794921875,162.0,9.36463642120361,Teufen (AR),9052,5.0,Sonstiges,1060000.0,0.009588380119899759,54.0,102.0,9,46.0,6,0,0,6,73
1999,47.6828498840332,138.0,8.63130760192871,Flurlingen,8247,4.0,Wohnung,1150000.0,0.062359520863279234,31.0,45.0,17,21.0,3,0,0,3,55
2017,47.0434417724609,112.0,8.35990142822266,Meggen,6045,4.0,Wohnung,1150000.0,0.07698378037740529,35.0,67.0,1,10.0,0,0,0,0,22
2017,46.97599792480471,129.0,7.47611999511719,Ittigen,3063,5.0,Wohnung,1165000.0,0.014657219252910528,7.0,8.0,11,47.0,3,0,0,3,85
2013,47.5579605102539,160.0,8.50694274902344,Glattfelden,8192,5.0,Wohnung,1085000.0,0.012260091650141108,19.0,34.0,16,24.0,3,0,0,3,56
1970,47.243801116943395,120.0,8.723950386047362,Stäfa,8712,5.0,Wohnung,1160000.0,0.1293161318821501,25.0,23.0,10,28.0,3,0,3,0,61
2010,46.7966423034668,160.0,10.296930313110401,Scuol,7550,5.0,Wohnung,1215000.0,0.024899529142671677,134.0,162.0,6,25.0,3,0,0,3,18
2015,47.26880264282229,180.0,8.48317623138428,Aeugst am Albis,8914,5.0,Wohnung,1250000.0,6.944430385737483e-05,18.0,30.0,14,27.0,4,0,0,4,60
1973,46.829418182373,146.0,9.28774833679199,Flims,7018,5.0,Wohnung,1095000.0,0.003536855596626972,78.0,119.0,2,18.0,0,0,0,0,14
2019,47.064849853515604,194.0,7.35097360610962,Grossaffoltern,3257,5.0,Wohnung,1180000.0,0.0,21.0,26.0,1,2.0,0,0,0,0,0
1996,47.4837760925293,186.0,7.7246994972229,Liestal,4410,5.0,Sonstiges,1140000.0,0.004481291943497387,15.0,16.0,13,18.0,3,0,3,3,45
2018,46.8830375671387,144.0,8.63509941101074,Altdorf (UR),6460,5.0,Wohnung,1021200.0,0.004940662551060715,49.0,87.0,5,36.0,0,0,0,0,87
2002,47.3500823974609,143.0,8.64423370361328,Maur,8123,4.0,Sonstiges,1150000.0,0.0003206810058919229,13.0,10.0,16,42.0,4,0,3,3,91
1600,47.3228073120117,198.0,9.087714195251461,Lichtensteig,9620,4.0,Wohnung,995000.0,0.032194854540409934,42.0,73.0,40,132.0,23,0,3,21,139
1989,46.51152038574221,130.0,9.85509395599365,Celerina/Schlarigna,7505,5.0,Wohnung,1100000.0,0.018577465422595352,101.0,198.0,11,44.0,4,0,0,4,19
1963,46.4894409179688,115.0,9.84509372711182,St. Moritz,7500,4.0,Wohnung,1200000.0,0.2316798724410332,99.0,203.0,3,28.0,3,0,0,3,74
2018,47.287956237793,158.0,8.71314811706543,Egg,8133,5.0,Wohnung,1240000.0,0.0,15.0,19.0,5,13.0,0,0,0,0,33
2019,47.4929046630859,119.0,7.730144500732419,Liestal,4410,4.0,Wohnung,1150000.0,0.009765159205572848,15.0,16.0,11,31.0,3,0,0,3,83
1979,46.5026779174805,98.0,7.284649848937991,Saanen,3778,4.0,Wohnung,1235000.0,0.0,61.0,109.0,12,27.0,0,0,0,0,7
2008,47.27929306030271,179.0,8.75625705718994,Grüningen,8627,4.0,Sonstiges,1040000.0,0.00036082571660830265,18.0,36.0,7,15.0,3,0,0,3,34
2012,47.4644050598145,145.0,8.24331474304199,Birmenstorf (AG),5413,4.0,Wohnung,1200000.0,0.05353685621949995,16.0,41.0,6,36.0,3,0,0,3,100
2017,47.6964836120605,115.0,8.62969207763672,Schaffhausen,8200,4.0,Wohnung,1070000.0,0.05629378325944514,34.0,48.0,16,56.0,10,0,0,10,82
2002,46.7750587463379,170.0,10.1985177993774,Scuol,7546,6.0,Wohnung,1050000.0,0.01127177890199383,124.0,152.0,18,35.0,6,0,3,3,42
2014,47.2436294555664,185.0,8.91668128967285,Eschenbach (SG),8733,5.0,Wohnung,1225000.0,0.0009547102660584268,28.0,45.0,5,14.0,0,0,0,0,30
1986,47.343929290771506,134.0,8.48388004302979,Stallikon,8143,5.0,Wohnung,1100000.0,0.0,9.0,13.0,8,8.0,0,0,0,0,11
2018,47.359073638915994,123.0,8.36309719085693,Berikon,8965,4.0,Wohnung,1080000.0,0.0,16.0,25.0,9,19.0,3,0,0,3,35
2012,47.194618225097706,117.0,8.676025390625,Richterswil,8833,4.0,Wohnung,1210000.0,0.0015875522261196186,16.0,24.0,4,15.0,3,0,0,3,35
2017,47.03458404541021,159.0,8.43447017669678,Weggis,6353,4.0,Sonstiges,1240000.0,0.2584399732489602,32.0,84.0,5,16.0,3,0,0,3,22
1990,46.098724365234396,137.0,7.239426612854,Bagnes,1936,6.0,Wohnung,1200000.0,0.0002684576505750181,59.0,86.0,7,8.0,3,0,0,3,3
2008,47.559268951415994,184.0,8.90314483642578,Frauenfeld,8500,4.0,Sonstiges,1140000.0,0.010518731225776,28.0,34.0,6,21.0,3,0,0,3,42
1990,46.090991973877,137.0,7.2219443321228,Bagnes,1936,6.0,Wohnung,1200000.0,0.0,59.0,86.0,9,16.0,4,0,3,3,35
2012,47.10013580322271,170.0,9.061686515808107,Glarus Nord,8752,5.0,Sonstiges,1190000.0,0.03736266728344488,33.0,56.0,17,53.0,13,0,0,13,146
1996,47.46976470947271,133.0,7.595477104187009,Aesch (BL),4147,5.0,Sonstiges,1050000.0,0.013361502378999204,11.0,14.0,7,35.0,8,0,3,7,95
2018,47.456722259521506,117.0,9.388631820678713,Wittenbach,9300,3.0,Wohnung,1200000.0,0.00018094821614201293,51.0,88.0,7,8.0,3,0,0,3,13
1990,47.180667877197294,186.0,8.874064445495609,Galgenen,8854,5.0,Wohnung,1130000.0,0.007919779356803509,23.0,54.0,13,55.0,9,3,0,7,116
1975,47.00122451782229,117.0,8.588747024536131,Ingenbohl,6440,4.0,Wohnung,1250000.0,0.3148787685807485,38.0,56.0,1,10.0,10,0,0,10,120
2007,46.2961769104004,150.0,7.3999309539794895,Ayent,1972,6.0,Wohnung,1200000.0,0.0009111762965925412,62.0,101.0,10,49.0,3,0,3,0,15
2005,47.0767936706543,208.0,8.33260536193848,Ebikon,6030,5.0,Wohnung,1070000.0,0.030794391364042738,31.0,51.0,14,48.0,5,0,0,5,132
2015,47.6250610351562,195.0,9.24067783355713,Münsterlingen,8597,5.0,Wohnung,1150000.0,0.06390317472832452,46.0,96.0,5,11.0,4,3,0,3,19
2000,47.706722259521506,174.0,8.61908626556396,Schaffhausen,8200,5.0,Wohnung,1050000.0,0.00210229414927767,34.0,48.0,6,34.0,5,3,0,4,27
2005,47.5279426574707,132.0,7.56996393203735,Bottmingen,4103,5.0,Wohnung,1170000.0,0.00426679958181634,6.0,12.0,11,63.0,3,0,3,3,106
2014,47.5332450866699,195.0,8.58112525939941,Rorbas,8427,6.0,Wohnung,1120000.0,0.023548748806962914,18.0,33.0,11,21.0,11,3,4,6,56
2015,47.43623352050779,106.0,8.468113899230959,Regensdorf,8105,4.0,Wohnung,1190000.0,0.0,9.0,6.0,8,50.0,5,0,0,5,151
2001,47.4825668334961,200.0,8.70783138275146,Winterthur,8406,6.0,Sonstiges,1125000.0,0.01559003915680799,16.0,17.0,2,20.0,3,0,0,3,42
1970,47.41947937011721,143.0,8.595165252685549,Wallisellen,8304,4.0,Wohnung,1200000.0,0.0,7.0,3.0,11,19.0,3,0,3,0,48
2009,47.339469909668,132.0,8.84266471862793,Bäretswil,8345,5.0,Wohnung,1015000.0,0.004317319572225599,24.0,39.0,7,43.0,3,0,0,3,79
2013,46.1745719909668,130.0,8.758091926574709,Losone,6616,4.0,Wohnung,1195000.0,0.04878216470015077,37.0,108.0,7,14.0,4,0,0,4,34
2019,47.364200592040994,128.0,8.79611206054688,Pfäffikon,8330,4.0,Wohnung,1180000.0,0.006118886188243407,17.0,26.0,7,26.0,0,0,0,0,49
1999,47.2074508666992,182.0,8.19732761383057,Beromünster,6215,4.0,Wohnung,950000.0,0.0,40.0,90.0,4,13.0,3,0,0,3,32
2004,47.512908935546896,165.0,8.47769165039062,Neerach,8173,5.0,Sonstiges,1095000.0,0.003831458629222756,17.0,26.0,2,14.0,3,0,3,3,29
2003,46.686450958252,172.0,7.84945249557495,Unterseen,3800,4.0,Sonstiges,1125000.0,0.04190137942293802,36.0,70.0,13,47.0,12,0,3,11,63
2016,47.740779876709006,170.0,8.6685094833374,Stetten (SH),8234,5.0,Wohnung,1050000.0,0.0005982614590224655,36.0,64.0,2,9.0,0,0,0,0,11
2019,47.4594039916992,141.0,8.63401699066162,Nürensdorf,8309,5.0,Sonstiges,1175000.0,0.004893151735426103,16.0,21.0,7,17.0,3,0,3,3,32
1988,46.472339630127,147.0,7.11761808395386,Château-d'Oex,1660,5.0,Wohnung,1150000.0,0.016779473893666786,53.0,106.0,4,32.0,0,0,0,0,3
2019,47.2766647338867,138.0,8.33512306213379,Muri (AG),5630,5.0,Wohnung,1200000.0,0.0,21.0,39.0,5,16.0,3,0,3,0,16
2015,47.41524505615229,149.0,9.25472354888916,Gossau (SG),9200,5.0,Wohnung,1170000.0,0.0010125628207121812,42.0,64.0,3,17.0,3,0,3,0,62
2011,46.989372253418,142.0,8.42125701904297,Ennetbürgen,6373,4.0,Wohnung,1223000.0,0.33062962720305666,43.0,101.0,7,33.0,6,0,0,6,59
2018,47.0503349304199,133.0,8.61721992492676,Steinen,6422,5.0,Wohnung,1160000.0,0.006634067082510187,35.0,57.0,1,2.0,0,0,0,0,6
2016,46.8772659301758,175.0,7.494042873382571,Belp,3123,6.0,Wohnung,1170000.0,0.005654058013283793,9.0,16.0,13,16.0,0,0,0,0,39
1977,47.1389350891113,100.0,8.61020469665527,Oberägeri,6315,4.0,Wohnung,1170000.0,0.1979983580382633,30.0,55.0,14,22.0,3,0,0,3,42
1972,46.4787712097168,115.0,9.81316089630127,St. Moritz,7512,4.0,Wohnung,1180000.0,0.05476810571453528,99.0,203.0,6,37.0,3,0,0,3,27
2010,46.8163909912109,130.0,9.26791572570801,Laax,7031,4.0,Sonstiges,1195000.0,0.0036823008678018845,81.0,134.0,3,30.0,3,0,0,3,7
2017,47.35636138916021,127.0,8.3612060546875,Zufikon,5621,4.0,Sonstiges,1070000.0,0.0,14.0,36.0,12,12.0,3,0,0,3,32
2017,47.010856628418,150.0,7.48753547668457,Moosseedorf,3302,5.0,Wohnung,1170000.0,0.004795641854795357,10.0,18.0,10,25.0,0,0,0,0,43
2006,46.2131195068359,148.0,6.86800813674927,Val-d'Illiez,1873,5.0,Wohnung,1195000.0,0.0,41.0,92.0,1,1.0,0,0,0,0,0
2006,47.7170562744141,168.0,8.645321846008299,Schaffhausen,8200,4.0,Wohnung,1140000.0,0.0011606354452428087,34.0,48.0,3,24.0,0,0,0,0,53
2018,47.1384391784668,136.0,7.31125020980835,Orpund,2552,5.0,Wohnung,1150000.0,0.040075768631782936,26.0,56.0,6,17.0,3,0,3,3,32
2000,47.3073310852051,101.0,8.548647880554201,Rüschlikon,8803,3.0,Wohnung,1360000.0,0.0756408736319739,8.0,5.0,0,0.0,0,0,0,0,0
2017,47.27217864990229,144.0,8.33376121520996,Muri (AG),5630,5.0,Wohnung,1150000.0,0.0,21.0,39.0,7,27.0,0,0,0,0,65
1990,47.334320068359396,160.0,9.41009521484375,Appenzell,9050,5.0,Sonstiges,1050000.0,0.01734827549461343,58.0,111.0,7,36.0,6,0,3,5,65
1993,47.4396553039551,210.0,7.593346118926999,Grellingen,4203,5.0,Sonstiges,1120000.0,0.023529727297552983,12.0,15.0,4,34.0,3,0,0,3,81
2018,47.4094734191895,148.0,9.0648307800293,Kirchberg (SG),9602,4.0,Wohnung,1150000.0,0.01760295532878789,38.0,61.0,6,27.0,0,0,0,0,51
2016,47.5445137023926,112.0,7.570569038391111,Binningen,4102,3.0,Wohnung,1295000.0,0.003062241689283805,4.0,10.0,7,45.0,3,0,0,3,138
2016,46.6831474304199,130.0,9.56438064575195,Lantsch/Lenz,7083,4.0,Wohnung,1090000.0,0.0,88.0,133.0,14,59.0,4,0,0,4,36
2006,47.2826156616211,132.0,8.5449743270874,Thalwil,8136,4.0,Wohnung,1250000.0,0.04197828602696068,12.0,8.0,3,24.0,16,0,6,10,60
2018,47.3187103271484,142.0,8.36958599090576,Rottenschwil,8919,5.0,Wohnung,1150000.0,0.09854618490062904,17.0,33.0,7,13.0,3,0,0,3,30
2017,47.1119995117188,125.0,7.252700328826902,Port,2562,5.0,Wohnung,1150000.0,0.03946263132133999,25.0,48.0,6,56.0,0,0,0,0,35
1981,46.37948989868161,168.0,7.63220500946045,Leukerbad,3954,7.0,Wohnung,1220000.0,0.0,80.0,124.0,2,14.0,0,0,0,0,0
2016,47.238216400146506,160.0,8.923272132873539,Eschenbach (SG),8733,4.0,Wohnung,1190000.0,0.0009547102660584268,28.0,45.0,8,19.0,0,0,0,0,40
1600,46.5743560791016,75.0,9.93305683135986,La Punt-Chamues-ch,7522,3.0,Wohnung,1290000.0,0.016852877653410762,109.0,179.0,5,29.0,3,0,3,3,8
1975,46.1546211242676,130.0,8.78052425384521,Ascona,6612,4.0,Wohnung,1190000.0,0.10873107567315288,35.0,74.0,10,57.0,3,0,0,3,61
1981,46.4955940246582,110.0,9.90284061431885,Pontresina,7504,3.0,Wohnung,1490000.0,0.015766362551210646,105.0,202.0,5,19.0,3,0,0,3,6
1988,46.601100921630895,134.0,9.96324062347412,Zuoz,7524,4.0,Wohnung,1230000.0,0.025596225567350257,111.0,173.0,7,50.0,3,0,0,3,42
2018,47.33361434936521,101.0,8.53026390075684,Zürich,8038,3.0,Wohnung,1320000.0,0.0281922399239401,0.0,0.0,13,80.0,4,0,0,4,107
2017,47.042179107665994,217.0,7.5205974578857395,Jegenstorf,3303,5.0,Sonstiges,1150000.0,0.0002510219518964188,16.0,22.0,7,10.0,0,0,0,0,18
2013,47.0489349365234,143.0,8.614621162414549,Steinen,6422,5.0,Wohnung,1100000.0,0.007352528142535624,35.0,57.0,12,53.0,9,0,3,7,95
2016,47.349761962890604,157.0,8.25319671630859,Villmergen,5612,4.0,Wohnung,1195000.0,0.0005666272902591684,26.0,43.0,5,28.0,3,0,0,3,48
2018,46.7476272583008,140.0,7.649197578430178,Hilterfingen,3626,3.0,Wohnung,1340000.0,0.15510252275911587,25.0,42.0,10,17.0,3,0,0,3,35
2016,46.6852340698242,130.0,9.56293964385986,Lantsch/Lenz,7083,4.0,Wohnung,1090000.0,0.0,88.0,133.0,13,51.0,0,0,0,0,23
2013,47.00752258300779,125.0,8.48476409912109,Vitznau,6354,4.0,Wohnung,1230000.0,0.3834115718538307,35.0,102.0,4,11.0,0,0,0,0,21
1986,46.489498138427706,102.0,9.83593463897705,St. Moritz,7500,3.0,Wohnung,1300000.0,0.13776721774847622,99.0,203.0,7,44.0,16,0,3,15,73
2016,47.524478912353494,131.0,7.61635398864746,Münchenstein,4142,4.0,Wohnung,1095000.0,0.028480161488565067,7.0,6.0,10,43.0,3,0,0,3,89
2018,47.501369476318395,142.0,8.260424613952638,Untersiggenthal,5417,4.0,Wohnung,1190000.0,0.023636049361653616,23.0,33.0,6,6.0,3,0,0,3,21
1997,46.8027153015137,95.0,9.23246383666992,Falera,7153,3.0,Wohnung,1500000.0,0.0,84.0,151.0,11,53.0,0,0,0,0,27
2018,47.483180999755895,157.0,8.304103851318361,Obersiggenthal,5415,4.0,Wohnung,1110000.0,0.05022521603522266,20.0,37.0,11,31.0,3,0,0,3,28
2018,47.467247009277294,127.0,9.481077194213867,Rorschacherberg,9404,4.0,Wohnung,1150000.0,0.0,57.0,91.0,4,4.0,0,0,0,0,13
1999,47.2672233581543,140.0,8.6648006439209,Meilen,8706,4.0,Wohnung,1390000.0,0.17092781267273285,18.0,12.0,7,37.0,3,0,0,3,73
2020,47.22929382324221,107.0,8.665280342102049,Wädenswil,8820,3.0,Wohnung,1350000.0,0.17827486307442397,18.0,18.0,9,36.0,3,0,0,3,69
1992,46.45874404907229,102.0,9.79700088500977,Silvaplana,7513,3.0,Wohnung,1400000.0,0.3310645498525451,94.0,227.0,4,30.0,0,0,0,0,6
2016,47.1998634338379,180.0,7.41570043563843,Bettlach,2544,4.0,Wohnung,1170000.0,0.015461944138641385,32.0,66.0,10,18.0,0,0,0,0,43
2016,46.7580375671387,143.0,7.63356637954712,Thun,3600,4.0,Wohnung,1220000.0,0.062321054625550376,18.0,24.0,9,45.0,9,0,0,9,57
2016,47.50492095947271,127.0,7.60183477401733,Reinach (BL),4153,4.0,Wohnung,1280000.0,0.016479287274709754,12.0,15.0,13,14.0,3,0,0,3,34
2018,47.3492431640625,99.0,8.53152656555176,Zürich,8038,2.0,Wohnung,1390000.0,0.2876044435372195,0.0,0.0,3,18.0,3,0,0,3,22
2017,47.6634750366211,151.0,8.98245620727539,Steckborn,8266,4.0,Wohnung,1190000.0,0.2504255563487661,39.0,79.0,9,24.0,3,0,3,3,48
2015,47.4263305664062,128.0,8.299830436706541,Niederrohrdorf,5443,4.0,Wohnung,1030000.0,0.0,19.0,38.0,5,50.0,0,0,0,0,104
2019,47.282497406005895,112.0,8.62644863128662,Meilen,8706,3.0,Wohnung,1490000.0,0.019620937451030062,18.0,12.0,13,17.0,3,0,0,3,23
2008,47.255744934082,108.0,8.60338878631592,Horgen,8810,3.0,Wohnung,1290000.0,0.26006165891566313,15.0,12.0,13,53.0,5,0,4,3,113
1975,47.1297950744629,138.0,7.21863317489624,Biel/Bienne,2505,3.0,Wohnung,1380000.0,0.4397275587862827,25.0,31.0,1,8.0,3,0,0,3,9
2014,46.032096862793,130.0,8.9611234664917,Canobbio,6952,3.0,Wohnung,1180000.0,0.012405319021873659,9.0,34.0,3,9.0,0,0,0,0,22
1933,47.176177978515604,62.0,8.50070190429688,Zug,6300,3.0,Wohnung,1350000.0,0.3956871756849471,25.0,27.0,7,34.0,7,0,3,5,55
2018,47.3611373901367,110.0,8.59758949279785,Zürich,8053,4.0,Wohnung,1095000.0,0.0,0.0,0.0,7,21.0,3,0,0,3,52
2020,47.2270736694336,116.0,8.663036346435549,Wädenswil,8820,3.0,Wohnung,1280000.0,0.03432255581405731,18.0,18.0,11,17.0,0,0,0,0,48
2015,47.3909111022949,161.0,8.06137657165527,Aarau,5000,4.0,Sonstiges,1200000.0,0.0019459869641922144,28.0,26.0,7,21.0,3,0,3,0,45
2017,47.5153999328613,109.0,7.55185413360596,Oberwil (BL),4104,4.0,Wohnung,1160000.0,0.0,9.0,19.0,19,31.0,3,0,3,3,66
1996,46.09516906738279,105.0,7.21842336654663,Bagnes,1936,4.0,Wohnung,1450000.0,0.0,59.0,86.0,8,16.0,4,0,0,4,39
2015,46.182689666748,132.0,8.81881809234619,Minusio,6648,4.0,Wohnung,1200000.0,0.00027607040350329794,33.0,72.0,7,13.0,3,0,0,3,11
2018,46.8735198974609,122.0,7.56338262557983,Münsingen,3110,4.0,Wohnung,1220000.0,0.000139231952229258,11.0,17.0,11,19.0,5,0,3,4,34
2017,47.242546081543,183.0,8.92206192016602,Eschenbach (SG),8733,4.0,Wohnung,1200000.0,0.004042447867568722,28.0,45.0,2,5.0,3,3,0,0,7
2018,47.5272331237793,146.0,7.58480310440063,Bottmingen,4103,4.0,Wohnung,1495000.0,0.0008237814705110327,6.0,12.0,5,9.0,3,0,0,3,21
1987,46.103199005127,94.0,7.23092174530029,Bagnes,1936,4.0,Wohnung,1340000.0,0.0002684576505750181,59.0,86.0,6,28.0,0,0,0,0,3
2017,47.4844818115234,110.0,7.7478289604187,Liestal,4410,4.0,Wohnung,1330000.0,0.009584550305180031,15.0,16.0,10,21.0,3,0,0,3,39
1996,47.44787216186521,197.0,8.644606590271,Nürensdorf,8309,6.0,Sonstiges,1350000.0,0.00031152544300570747,16.0,21.0,3,24.0,3,0,0,3,52
2012,47.4831619262695,127.0,8.31116771697998,Ennetbaden,5408,4.0,Wohnung,1460000.0,0.040380371275996765,17.0,32.0,1,10.0,3,0,0,3,35
2017,47.579517364502,117.0,7.642146110534671,Riehen,4125,4.0,Wohnung,1360000.0,0.013997509292319679,7.0,6.0,10,45.0,3,0,0,3,79
2018,47.0927200317383,131.0,8.39607334136963,Udligenswil,6044,4.0,Wohnung,1460000.0,0.0,29.0,53.0,4,8.0,0,0,0,0,8
1996,46.9855270385742,150.0,8.30619716644287,Hergiswil (NW),6052,4.0,Wohnung,1375000.0,0.15708471166174495,36.0,71.0,6,44.0,7,0,0,7,87
1914,47.14731216430661,163.0,7.2358694076538095,Evilard,2533,4.0,Sonstiges,1290000.0,0.0,33.0,58.0,6,18.0,3,0,3,3,33
1997,47.444175720214794,170.0,8.67323303222656,Lindau,8315,4.0,Wohnung,1450000.0,0.0,13.0,24.0,10,15.0,3,0,0,3,30
2008,47.3648872375488,136.0,8.59772109985352,Zürich,8053,4.0,Wohnung,1490000.0,0.0,0.0,0.0,5,37.0,7,0,0,7,86
